     2.10           OBSERVATION DATA    G (GPS)             RINEX VERSION / TYPE
TPS2RIN 1.20        RUN BY              26-MAY-08 09:57     PGM / RUN BY / DATE
build May 16, 2002 (c) Topcon Positioning Systems           COMMENT
RUN BY;COMMENT;MARKER NAME;MARKER NUMBER;OBSERVER;AGENCY;   COMMENT
ANT #;ANT TYPE - You can set in profile.                    COMMENT
g1-0522a.tps                                                COMMENT
W310                                                        MARKER NAME
W310                                                        MARKER NUMBER
OBSERVER            AGENCY                                  OBSERVER / AGENCY
8RRHTDPW5C0         TPS HIPER           3.0 Jun,16,2006     REC # / TYPE / VERS
g1-0522a            -Unknown-                               ANT # / TYPE
 -2267420.0727  5008962.1754  3221795.4083                  APPROX POSITION XYZ
        1.2386        0.0000        0.0000                  ANTENNA: DELTA H/E/N
     1     1                                                WAVELENGTH FACT L1/2
  2008     5    22     0    38   40.0000000     GPS         TIME OF FIRST OBS
  2008     5    22     1    54    0.0000000     GPS         TIME OF LAST OBS
    10.000                                                  INTERVAL
    14                                                      LEAP SECONDS
    10                                                      # OF SATELLITES
     7    C1    P1    P2    L1    L2    D1    D2            # / TYPES OF OBSERV
   G 2   453   452   452   453   452   453   452            PRN / # OF OBS
   G 4    32    31    31    32    31    32    31            PRN / # OF OBS
   G 8   339   339   339   339   339   339   339            PRN / # OF OBS
   G10   453   453   453   453   453   453   453            PRN / # OF OBS
   G15   453   453   453   453   453   453   453            PRN / # OF OBS
   G18    57    57    57    57    57    57    57            PRN / # OF OBS
   G21   181   181   181   181   181   181   181            PRN / # OF OBS
   G24   453   453   453   453   453   453   453            PRN / # OF OBS
   G26   453   453   453   453   453   453   453            PRN / # OF OBS
   G29   453   453   453   453   453   453   453            PRN / # OF OBS
SE TPS 7040cb3f                                             COMMENT
                                                            END OF HEADER
 08  5 22  0 38 40.0000000  0  8G 2G 4G 8G10G15G24G26G29            
  22282135.892 7                                 117093419.653                  
     -1333.355                  
  25368683.338 6                                 133313345.188                  
     -2335.585                  
  25527829.640 4  25527831.61741  25527832.72741 134149662.643   104532210.7404 
      1298.327        1011.709  
  22047918.841 8  22047918.74945  22047922.55645 115862602.175    90282547.5314 
     -1021.711        -796.157  
  22413143.587 8  22413140.08646  22413148.10145 117781861.933    91778072.3354 
      2727.020        2124.917  
  23347607.911 7  23347604.55344  23347608.75744 122692502.219    95604546.7034 
      2565.357        1998.922  
  21475167.234 8  21475168.05046  21475171.16946 112852771.782    87937227.7824 
      2614.990        2037.634  
  23082933.082 8  23082934.09346  23082936.27046 121301638.673    94520759.8604 
      1668.054        1299.792  
 08  5 22  0 38 50.0000000  0  8G 2G 4G 8G10G15G24G26G29            
  21085502.158 7  21085502.04845  21085505.18745 110805068.713    86341611.5024 
     -1331.111       -1037.227  
  24173956.009 6  24173956.64641  24173962.41141 127035006.140    98988316.9344 
     -2331.251       -1816.535  
  24326194.001 5  24326187.97341  24326192.72841 127834994.594    99611690.2724 
      1298.950        1012.089  
  20850690.724 7  20850689.90845  20850693.70545 109571122.418    85380095.7434 
     -1017.494        -792.855  
  21208782.311 8  21208782.34646  21208785.17846 111452894.601    86846409.4874 
      2728.222        2125.920  
  22143549.819 8  22143550.40044  22143553.04944 116365131.270    90674127.7454 
      2570.435        2002.896  
  20271020.194 8  20271020.29046  20271023.78546 106524933.577    83006444.7564 
      2614.533        2037.320  
  21880588.396 8  21880588.80246  21880591.41546 114983272.333    89597357.5074 
      1667.806        1299.560  
 08  5 22  0 39  0.0000000  0  8G 2G 4G 8G10G15G24G26G29            
  21088034.100 8  21088034.07246  21088035.52346 110818372.006    86351977.7054 
     -1329.265       -1035.790  
  24178388.386 6  24178389.00242  24178393.85842 127058295.899    99006464.7414 
     -2327.395       -1813.552  
  24323717.020 5  24323715.36441  24323718.98441 127821996.051    99601561.5274 
      1300.790        1013.527  
  20852622.733 8  20852621.94346  20852625.82946 109581276.230    85388007.8054 
     -1013.133        -789.425  
  21203589.149 7  21203589.06245  21203591.98845 111425604.255    86825144.2674 
      2729.766        2127.103  
  22138654.249 7  22138653.92144  22138657.35244 116339399.554    90654077.0494 
      2576.116        2007.392  
  20266044.768 8  20266044.95146  20266048.27946 106498787.931    82986071.5284 
      2614.401        2037.199  
  21877414.158 7  21877413.79646  21877417.08846 114966589.849    89584358.1794 
      1668.717        1300.289  
 08  5 22  0 39 10.0000000  0  8G 2G 4G 8G10G15G24G26G29            
  21090561.827 7  21090561.96145  21090563.03245 110831655.054    86362328.1034 
     -1327.252       -1034.253  
  24182811.555 6  24182812.90743  24182817.68443 127081543.619    99024579.7984 
     -2323.533       -1810.522  
  24321239.098 5  24321238.20841  24321243.88341 127808981.868    99591420.5894 
      1302.337        1014.817  
  20854547.040 7  20854545.97645  20854550.02145 109591387.750    85395886.8934 
     -1009.306        -786.528  
  21198393.333 7  21198393.40845  21198396.17645 111398300.155    86803868.3514 
      2731.266        2128.249  
  22133747.551 7  22133746.63443  22133751.72343 116313617.069    90633986.8084 
      2580.331        2010.629  
  20261070.101 8  20261070.03845  20261073.46946 106472644.656    82965700.1434 
      2614.446        2037.219  
  21874238.882 7  21874238.59745  21874242.27645 114949904.793    89571356.8264 
      1668.455        1300.098  
 08  5 22  0 39 20.0000000  0  8G 2G 4G 8G10G15G24G26G29            
  21093085.751 8  21093085.59145  21093087.09145 110844918.178    86372663.0064 
     -1325.284       -1032.649  
  24187229.760 5  24187227.73942  24187234.08941 127104749.612    99042662.4224 
     -2319.166       -1807.241  
  24318759.748 4  24318759.39041  24318764.84841 127795952.932    99581268.3894 
      1302.992        1015.149  
  20856463.161 8  20856462.21346  20856466.27546 109601456.934    85403733.0054 
     -1004.997        -783.128  
  21193194.944 8  21193195.33345  21193197.75545 111370982.560    86782581.9094 
      2732.340        2129.079  
  22128831.296 6  22128830.74143  22128835.78443 116287784.062    90613857.1994 
      2585.449        2014.626  
  20256095.709 8  20256095.71345  20256099.05346 106446504.009    82945330.8194 
      2613.813        2036.695  
  21871063.067 7  21871063.11545  21871066.77245 114933217.260    89558353.5534 
      1668.579        1300.151  
 08  5 22  0 39 30.0000000  0  8G 2G 4G 8G10G15G24G26G29            
  21095605.963 8  21095605.66946  21095607.06846 110858160.587    86382981.7524 
     -1323.208       -1031.072  
  24191636.161 5  24191635.62242  24191641.92841 127127913.969    99060712.7744 
     -2315.032       -1803.946  
  24316277.258 5  24316277.08542  24316281.14941 127782906.925    99571102.6044 
      1304.715        1016.549  
  20858371.097 8  20858370.28246  20858374.04546 109611483.112    85411545.6064 
     -1000.298        -779.463  
  21187993.805 8  21187994.04746  21187996.91546 111343650.906    86761284.5124 
      2733.964        2130.363  
  22123905.208 7  22123905.38144  22123910.36044 116261899.611    90593687.5094 
      2590.998        2018.969  
  20251121.744 8  20251121.58346  20251124.90346 106420365.343    82924963.0194 
      2613.978        2036.837  
  21867886.871 7  21867886.94846  21867890.50745 114916526.770    89545347.9764 
      1669.206        1300.650  
 08  5 22  0 39 40.0000000  0  8G 2G 4G 8G10G15G24G26G29            
  21098122.194 8  21098122.07746  21098123.50146 110871383.468    86393285.2764 
     -1321.086       -1029.407  
  24196034.847 5  24196036.51541  24196042.15141 127151036.084    99078729.9884 
     -2309.976       -1799.996  
  24313791.988 6  24313791.66342  24313796.98742 127769846.170    99560925.3954 
      1306.946        1018.414  
  20860271.008 8  20860270.09845  20860274.14045 109621467.456    85419325.6374 
      -996.290        -776.345  
  21182790.487 8  21182790.56546  21182793.26846 111316306.459    86739977.1554 
      2735.193        2131.339  
  22118970.793 7  22118970.76644  22118974.95745 116235965.336    90573478.9944 
      2595.965        2022.814  
  20246148.336 8  20246148.14646  20246151.47646 106394230.037    82904597.8364 
      2613.435        2036.429  
  21864710.690 7  21864711.12445  21864713.90345 114899834.507    89532341.0064 
      1669.387        1300.846  
 08  5 22  0 39 50.0000000  0  8G 2G 4G 8G10G15G24G26G29            
  21100634.901 8  21100634.72646  21100636.10646 110884587.552    86403574.1524 
     -1319.906       -1028.512  
  24200428.256 6  24200429.05543  24200434.18043 127174117.518    99096715.4744 
     -2305.904       -1796.820  
  24311304.128 6  24311303.81842  24311307.45742 127756771.454    99550737.2894 
      1308.081        1019.287  
  20862163.360 8  20862162.25245  20862166.37245 109631410.793    85427073.6754 
      -992.782        -773.597  
  21177584.605 8  21177584.76446  21177587.50046 111288949.921    86718660.3954 
      2736.111        2132.031  
  22114026.156 7  22114026.58345  22114030.24445 116209981.736    90553232.0274 
      2600.648        2026.505  
  20241175.746 8  20241175.57246  20241179.03646 106368098.715    82884235.7694 
      2612.617        2035.804  
  21861534.324 7  21861534.58545  21861537.05745 114883141.204    89519333.2384 
      1669.141        1300.618  
 08  5 22  0 40  0.0000000  0  8G 2G 4G 8G10G15G24G26G29            
  21103144.109 7  21103144.10846  21103145.73846 110897774.640    86413849.8004 
     -1318.061       -1027.066  
  24204813.213 5  24204814.41643  24204818.67943 127197160.105    99114670.7324 
     -2301.965       -1793.804  
  24308813.767 6  24308813.47342  24308817.33442 127743684.506    99540539.7034 
      1309.332        1020.321  
  20864047.866 8  20864046.90845  20864051.05546 109641314.767    85434791.0514 
      -988.653        -770.374  
  21172377.195 8  21172376.97146  21172379.75546 111261583.223    86697335.6914 
      2737.341        2133.001  
  22109072.938 7  22109072.83645  22109076.52945 116183950.740    90532948.1104 
      2605.679        2030.418  
  20236204.436 8  20236204.28546  20236207.65346 106341973.492    82863878.4514 
      2612.282        2035.562  
  21858357.992 7  21858358.25045  21858360.42045 114866448.851    89506326.2154 
      1669.303        1300.761  
 08  5 22  0 40 10.0000000  0  8G 2G 4G 8G10G15G24G26G29            
  21105650.156 8  21105650.17346  21105651.81246 110910944.398    86424111.9354 
     -1316.527       -1025.830  
  24209189.813 6  24209190.97542  24209196.00242 127220163.717    99132595.5674 
     -2299.465       -1791.782  
  24306321.453 6  24306321.86942  24306324.57242 127730585.204    99530332.4784 
      1309.860        1020.767  
  20865924.758 8  20865924.19245  20865928.21145 109651178.951    85442477.4214 
      -984.456        -767.099  
  21167167.444 7  21167167.37146  21167170.03946 111234206.127    86676002.8854 
      2738.153        2133.628  
  22104110.404 7  22104109.83345  22104113.89045 116157872.002    90512627.0274 
      2610.381        2034.077  
  20231233.621 8  20231233.81146  20231237.23446 106315853.913    82843525.5284 
      2611.532        2034.973  
  21855182.032 7  21855182.00645  21855183.97545 114849756.999    89493319.5664 
      1669.319        1300.796  
 08  5 22  0 40 20.0000000  0  8G 2G 4G 8G10G15G24G26G29            
  21108153.032 7  21108153.00645  21108154.92246 110924097.700    86434361.2404 
     -1314.149       -1024.013  
  24213561.358 6  24213561.21143  24213567.20742 127243128.770    99150490.3964 
     -2293.780       -1787.234  
  24303825.775 5  24303825.68142  24303830.75942 127717474.307    99520116.1714 
      1312.257        1022.517  
  20867794.388 7  20867793.96745  20867797.65445 109661004.210    85450133.4634 
      -980.289        -763.874  
  21161956.013 7  21161955.82446  21161958.48346 111206819.447    86654662.6104 
      2739.220        2134.452  
  22099138.715 7  22099138.45445  22099142.60345 116131746.403    90492269.4074 
      2615.315        2037.895  
  20226264.681 7  20226264.52646  20226268.06446 106289740.915    82823177.7374 
      2610.891        2034.477  
  21852006.027 7  21852005.98845  21852007.72445 114833066.575    89480314.0494 
      1669.221        1300.701  
 08  5 22  0 40 30.0000000  0  8G 2G 4G 8G10G15G24G26G29            
  21110652.961 8  21110652.87346  21110654.54745 110937234.355    86444597.5774 
     -1313.033       -1023.171  
  24217923.672 6  24217924.16242  24217929.30642 127266055.283    99168355.1864 
     -2290.970       -1785.141  
  24301329.777 6  24301328.44642  24301333.33442 127704351.896    99509890.9234 
      1312.650        1022.803  
  20869656.735 8  20869656.35245  20869659.85545 109670790.254    85457758.9364 
      -976.877        -761.196  
  21156742.198 8  21156742.65946  21156745.37046 111179423.131    86633314.8244 
      2739.935        2135.016  
  22094157.807 7  22094158.33745  22094162.38845 116105574.002    90471875.3394 
      2619.500        2041.171  
  20221296.680 8  20221296.70246  20221300.06846 106263634.451    82802835.0414 
      2610.121        2033.879  
  21848830.065 8  21848830.27145  21848832.03545 114816377.515    89467309.5784 
      1668.773        1300.307  
 08  5 22  0 40 40.0000000  0  8G 2G 4G 8G10G15G24G26G29            
  21113150.082 8  21113149.62946  21113151.32546 110950355.454    86454821.8214 
     -1311.164       -1021.724  
  24222279.549 6  24222279.79343  24222284.62143 127288944.509    99186190.8954 
     -2287.448       -1782.399  
  24298830.127 6  24298829.62042  24298834.15542 127691219.046    99499657.5434 
      1313.640        1023.576  
  20871511.976 8  20871511.20446  20871514.80345 109680538.318    85465354.8264 
      -972.598        -757.841  
  21151527.468 8  21151527.43246  21151530.41846 111152018.375    86611960.4754 
      2740.924        2135.797  
  22089168.521 7  22089169.51644  22089172.78444 116079356.005    90451445.7174 
      2624.245        2044.864  
  20216330.475 8  20216330.56446  20216333.71946 106237535.797    82782498.4174 
      2609.679        2033.545  
  21845654.641 7  21845654.88045  21845656.53145 114799691.006    89454307.0814 
      1668.600        1300.215  
 08  5 22  0 40 50.0000000  0  8G 2G 4G 8G10G15G24G26G29            
  21115643.823 7  21115643.60445  21115645.16645 110963461.192    86465034.0654 
     -1309.978       -1020.765  
  24226628.251 6  24226628.36443  24226632.81443 127311796.241    99203997.4604 
     -2283.546       -1779.400  
  24296329.676 6  24296328.34043  24296333.00743 127678076.097    99489416.3004 
      1314.974        1024.612  
  20873359.404 7  20873358.88845  20873362.52945 109690248.404    85472921.1304 
      -969.120        -755.166  
  21146310.868 8  21146311.13846  21146313.77946 111124605.367    86590599.6984 
      2741.542        2136.271  
  22084171.657 8  22084171.79244  22084174.88245 116053092.455    90430980.6314 
      2628.579        2048.204  
  20211365.239 7  20211365.59046  20211368.74646 106211445.077    82762167.9914 
      2608.569        2032.639  
  21842479.611 8  21842479.55945  21842481.91745 114783007.074    89441306.6224 
      1668.255        1299.958  
 08  5 22  0 41  0.0000000  0  8G 2G 4G 8G10G15G24G26G29            
  21118134.886 8  21118135.20045  21118136.21145 110976552.164    86475234.8244 
     -1308.466       -1019.565  
  24230969.817 6  24230970.08343  24230974.44443 127334611.272    99221775.3884 
     -2279.535       -1776.282  
  24293825.942 6  24293824.85043  24293829.38543 127664923.659    99479167.6364 
      1316.099        1025.570  
  20875200.426 8  20875199.40345  20875203.13746 109699920.959    85480458.1764 
      -965.643        -752.452  
  21141092.990 8  21141093.26146  21141095.91946 111097184.844    86569233.0484 
      2742.256        2136.807  
  22079165.290 8  22079165.25545  22079168.66445 116026784.055    90410480.6014 
      2632.942        2051.637  
  20206402.000 8  20206402.34046  20206405.56846 106185363.107    82741844.3894 
      2607.501        2031.823  
  21839305.173 7  21839304.82045  21839307.51445 114766326.592    89428308.8474 
      1667.655        1299.480  
 08  5 22  0 41 10.0000000  0  8G 2G 4G 8G10G15G24G26G29            
  21120623.794 8  21120623.81045  21120624.91845 110989629.570    86485424.9924 
     -1307.045       -1018.482  
  24235305.079 7  24235305.62043  24235309.49843 127357390.835    99239525.6694 
     -2275.740       -1773.304  
  24291321.692 6  24291320.76543  24291326.62543 127651762.981    99468912.5844 
      1316.629        1025.921  
  20877033.829 8  20877033.03545  20877037.13645 109709557.271    85487966.9844 
      -962.094        -749.693  
  21135873.854 8  21135874.13146  21135876.75146 111069757.961    86547861.4584 
      2742.965        2137.371  
  22074150.887 8  22074150.12245  22074153.73945 116000432.105    90389946.5934 
      2637.021        2054.794  
  20201440.632 8  20201441.00346  20201444.30546 106159291.102    82721528.5214 
      2606.623        2031.126  
  21836132.210 7  21836131.57445  21836134.39245 114749650.703    89415314.6354 
      1667.028        1298.949  
 08  5 22  0 41 20.0000000  0  8G 2G 4G 8G10G15G24G26G29            
  21123109.796 7  21123109.73145  21123111.04246 111002693.825    86495604.9154 
     -1305.814       -1017.505  
  24239632.841 6  24239633.82043  24239638.37843 127380135.272    99257248.5754 
     -2272.767       -1770.990  
  24288815.847 6  24288815.39943  24288821.10543 127638594.601    99458651.5094 
      1317.174        1026.413  
  20878860.946 8  20878860.09245  20878864.14345 109719157.738    85495447.8614 
      -958.375        -746.781  
  21130653.379 7  21130653.60746  21130656.45646 111042325.292    86526485.3624 
      2743.351        2137.693  
  22069127.473 7  22069127.05044  22069130.90545 115974037.021    90369379.0024 
      2641.475        2058.286  
  20196481.377 8  20196481.64246  20196484.89446 106133229.501    82701220.7794 
      2605.496        2030.270  
  21832959.511 7  21832959.24445  21832962.17045 114732979.930    89402324.4154 
      1666.688        1298.750  
 08  5 22  0 41 30.0000000  0  8G 2G 4G 8G10G15G24G26G29            
  21125593.508 7  21125593.10546  21125594.76146 111015745.455    86505775.0054 
     -1304.622       -1016.612  
  24243954.462 6  24243954.97043  24243960.50843 127402845.135    99274944.5524 
     -2269.368       -1768.333  
  24286308.509 6  24286308.67443  24286313.35143 127625419.247    99448384.9824 
      1317.767        1026.876  
  20880680.939 8  20880680.31246  20880684.49645 109728723.026    85502901.3274 
      -954.769        -743.977  
  21125432.405 8  21125432.32446  21125435.14746 111014887.626    86505105.3634 
      2743.895        2138.078  
  22064096.336 7  22064096.08845  22064099.76045 115947599.575    90348778.3804 
      2645.794        2061.673  
  20191524.156 8  20191524.37046  20191527.60546 106107179.086    82680921.7574 
      2604.376        2029.380  
  21829788.585 8  21829788.20245  21829791.39945 114716314.959    89389338.7164 
      1666.111        1298.269  
 08  5 22  0 41 40.0000000  0  8G 2G 4G 8G10G15G24G26G29            
  21128075.103 8  21128074.46845  21128076.23946 111028785.575    86515936.1274 
     -1303.254       -1015.522  
  24248269.388 6  24248269.59143  24248275.17743 127425521.474    99292614.4094 
     -2265.729       -1765.486  
  24283800.963 6  24283800.52943  24283805.03243 127612237.888    99438113.8074 
      1318.524        1027.424  
  20882494.761 8  20882494.01545  20882498.03545 109738253.940    85510328.0124 
      -951.255        -741.244  
  21120210.502 8  21120210.20146  21120213.10246 110987445.815    86483722.1354 
      2744.414        2138.517  
  22059057.395 7  22059058.07845  22059061.63845 115921120.719    90328145.5024 
      2649.977        2064.897  
  20186569.439 8  20186569.50846  20186572.57746 106081140.819    82660632.1944 
      2603.231        2028.461  
  21826618.158 8  21826618.78845  21826621.79145 114699656.761    89376358.3004 
      1665.401        1297.709  
 08  5 22  0 41 50.0000000  0  8G 2G 4G 8G10G15G24G26G29            
  21130554.513 7  21130553.98846  21130555.75646 111041815.281    86526089.1414 
     -1302.072       -1014.602  
  24252578.671 6  24252578.94443  24252583.79543 127448165.274    99310258.8844 
     -2262.398       -1762.885  
  24281291.414 6  24281290.83143  24281295.81243 127599051.730    99427838.8874 
      1319.183        1027.907  
  20884302.231 8  20884301.67646  20884305.53645 109747751.568    85517728.7514 
      -947.993        -738.691  
  21114987.665 8  21114987.85446  21114990.45546 110960001.079    86462336.6274 
      2744.764        2138.792  
  22054011.559 8  22054011.95045  22054016.10145 115894601.659    90307481.2984 
      2653.911        2068.010  
  20181617.063 8  20181617.24546  20181620.36546 106055116.081    82640353.1804 
      2602.051        2027.567  
  21823450.440 8  21823450.74046  21823453.34646 114683006.432    89363384.0124 
      1664.620        1297.124  
 08  5 22  0 42  0.0000000  0  8G 2G 4G 8G10G15G24G26G29            
  21133031.300 8  21133030.93145  21133032.69446 111054831.443    86536231.5954 
     -1301.054       -1013.800  
  24256881.299 6  24256881.57943  24256886.13943 127470773.598    99327875.7454 
     -2259.019       -1760.281  
  24278780.560 6  24278779.80843  24278785.18243 127585857.810    99417557.9104 
      1319.531        1028.234  
  20886102.428 8  20886101.99146  20886106.05846 109757212.760    85525101.1024 
      -944.584        -736.032  
  21109764.258 8  21109764.42146  21109766.84146 110932550.377    86440946.4624 
      2745.153        2139.085  
  22048957.194 7  22048956.87045  22048961.65745 115868039.320    90286783.3914 
      2657.914        2071.105  
  20176666.468 8  20176666.88646  20176670.03546 106029101.568    82620082.1324 
      2600.763        2026.571  
  21820283.083 8  21820283.72446  21820285.81546 114666360.996    89350413.5424 
      1663.918        1296.566  
 08  5 22  0 42 10.0000000  0  8G 2G 4G 8G10G15G24G26G29            
  21135506.127 7  21135506.12446  21135507.90346 111067838.205    86546366.7204 
     -1300.174       -1013.130  
  24261176.838 6  24261177.93643  24261182.23343 127493350.309    99345467.9534 
     -2256.412       -1758.263  
  24276268.768 6  24276268.22643  24276273.94743 127572660.234    99407274.0974 
      1319.825        1028.366  
  20887896.857 7  20887896.18646  20887900.35845 109766641.478    85532448.1474 
      -941.214        -733.417  
  21104539.591 8  21104540.37246  21104542.93646 110905097.798    86419554.8494 
      2745.106        2139.062  
  22043895.480 7  22043894.14845  22043899.24045 115841437.819    90266054.9564 
      2661.802        2074.123  
  20171719.036 8  20171719.14246  20171722.46646 106003101.660    82599822.4604 
      2599.149        2025.313  
  21817117.168 7  21817117.52046  21817119.96746 114649724.626    89337450.1344 
      1662.875        1295.734  
 08  5 22  0 42 20.0000000  0  8G 2G 4G 8G10G15G24G26G29            
  21137979.712 7  21137979.49046  21137981.23146 111080835.415    86556494.4074 
     -1299.419       -1012.533  
  24265467.514 6  24265468.59443  24265471.78643 127515895.388    99363035.5354 
     -2253.038       -1755.625  
  24273757.281 6  24273755.96943  24273761.19843 127559459.008    99396987.4214 
      1320.133        1028.675  
  20889685.044 7  20889684.35446  20889688.34646 109776037.549    85539769.7544 
      -938.142        -731.009  
  21099315.177 7  21099315.89446  21099318.64246 110877643.429    86398161.8284 
      2745.427        2139.323  
  22038826.078 7  22038824.74845  22038829.02845 115814797.104    90245295.9554 
      2665.920        2077.337  
  20166774.053 8  20166774.10046  20166777.58546 105977116.191    82579574.0454 
      2597.658        2024.166  
  21813952.873 7  21813952.77345  21813955.80045 114633097.134    89324493.6464 
      1662.332        1295.333  
 08  5 22  0 42 30.0000000  0  8G 2G 4G 8G10G15G24G26G29            
  21140451.437 7  21140451.30546  21140452.82846 111093824.408    86566615.6884 
     -1298.385       -1011.737  
  24269751.497 6  24269752.23643  24269757.24543 127538410.177    99380579.5044 
     -2250.110       -1753.349  
  24271244.342 6  24271243.72643  24271248.78743 127546255.558    99386699.0324 
      1320.542        1029.041  
  20891466.789 8  20891466.36045  20891470.32546 109785402.316    85547066.9684 
      -934.816        -728.447  
  21094091.461 8  21094091.36546  21094094.07346 110850188.717    86376768.5424 
      2745.564        2139.383  
  22033748.713 7  22033748.26645  22033751.90145 115788118.672    90224507.5574 
      2669.796        2080.357  
  20161832.459 8  20161832.40446  20161835.89346 105951146.664    82559338.0514 
      2596.178        2022.983  
  21810790.972 8  21810790.82045  21810793.70045 114616480.044    89311545.2564 
      1661.109        1294.352  
 08  5 22  0 42 40.0000000  0  8G 2G 4G 8G10G15G24G26G29            
  21142921.579 7  21142921.40946  21142923.00046 111106804.888    86576730.3334 
     -1297.662       -1011.172  
  24274030.459 6  24274030.50443  24274036.67443 127560894.348    99398099.6384 
     -2247.167       -1751.062  
  24268731.169 6  24268731.27643  24268736.04143 127533049.539    99376408.6294 
      1320.422        1028.884  
  20893242.987 8  20893242.23446  20893246.32246 109794735.392    85554339.4944 
      -931.774        -726.061  
  21088866.538 8  21088866.69146  21088869.45046 110822733.316    86355374.7384 
      2745.488        2139.326  
  22028664.662 7  22028664.11945  22028668.25445 115761402.180    90203689.5074 
      2673.193        2082.986  
  20156893.655 8  20156893.57546  20156897.17346 105925192.872    82539114.3244 
      2594.617        2021.786  
  21807630.716 8  21807630.56246  21807633.40646 114599872.981    89298604.6874 
      1659.974        1293.462  
 08  5 22  0 42 50.0000000  0  8G 2G 4G 8G10G15G24G26G29            
  21145390.405 8  21145390.33245  21145391.76946 111119779.208    86586840.1804 
     -1297.127       -1010.755  
  24278303.566 7  24278303.89243  24278308.00043 127583350.040    99415597.5794 
     -2244.138       -1748.625  
  24266217.523 6  24266217.61843  24266222.68443 127519843.411    99366118.1394 
      1320.492        1028.968  
  20895013.572 8  20895012.67445  20895016.62545 109804039.129    85561589.1504 
      -928.860        -723.795  
  21083642.601 7  21083642.45646  21083645.19546 110795279.638    86333982.2544 
      2745.240        2139.149  
  22023573.589 8  22023573.57845  22023577.47445 115734650.034    90182843.6844 
      2677.068        2086.009  
  20151958.050 8  20151958.08346  20151961.69346 105899257.116    82518904.6484 
      2592.621        2020.225  
  21804472.771 7  21804472.58146  21804475.27646 114583278.363    89285673.8054 
      1658.904        1292.655  
 08  5 22  0 43  0.0000000  0  8G 2G 4G 8G10G15G24G26G29            
  21147858.260 8  21147857.94946  21147859.36946 111132746.240    86596944.3504 
     -1296.443       -1010.201  
  24282570.928 6  24282572.11743  24282576.34443 127605776.379    99433072.6564 
     -2241.506       -1746.615  
  24263704.593 6  24263703.62843  24263709.48343 127506636.198    99355826.8264 
      1320.493        1028.968  
  20896777.987 8  20896777.36945  20896781.17046 109813312.393    85568815.0644 
      -925.793        -721.406  
  21078418.495 8  21078418.37446  21078421.06146 110767826.613    86312590.2854 
      2745.198        2139.107  
  22018475.847 7  22018475.88945  22018479.89345 115707861.211    90161969.2784 
      2680.581        2088.771  
  20147025.794 8  20147025.92246  20147029.40646 105873338.431    82498708.2674 
      2590.955        2018.941  
  21801316.927 8  21801316.47345  21801319.44345 114566695.173    89272751.8404 
      1657.606        1291.665  
 08  5 22  0 43 10.0000000  0  8G 2G 4G 8G10G15G24G26G29            
  21150324.421 8  21150324.43646  21150325.80046 111145706.970    86607043.6114 
     -1295.617       -1009.580  
  24286833.515 6  24286833.85343  24286838.73643 127628174.203    99450525.4814 
     -2238.095       -1743.925  
  24261191.802 6  24261191.15843  24261197.43743 127493428.952    99345535.4574 
      1320.972        1029.374  
  20898537.015 8  20898536.53046  20898540.14646 109822556.142    85576017.9824 
      -922.896        -719.145  
  21073194.641 8  21073194.57946  21073197.24746 110740375.390    86291199.7244 
      2745.091        2139.012  
  22013371.710 7  22013370.97745  22013375.39945 115681036.766    90141067.1234 
      2684.274        2091.587  
  20142097.113 8  20142097.25546  20142100.67046 105847437.989    82478526.1044 
      2589.123        2017.489  
  21798163.621 8  21798163.46145  21798166.13045 114550124.477    89259839.6054 
      1656.394        1290.696  
 08  5 22  0 43 20.0000000  0  8G 2G 4G 8G10G15G24G26G29            
  21152789.923 8  21152789.79945  21152791.24146 111158662.695    86617138.9724 
     -1295.391       -1009.377  
  24291090.125 6  24291090.31543  24291094.96743 127650544.927    99467957.2064 
     -2236.050       -1742.430  
  24258677.714 6  24258677.41143  24258683.16743 127480222.991    99335245.1024 
      1320.185        1028.659  
  20900290.795 8  20900290.28545  20900293.64646 109831771.674    85583198.9064 
      -920.108        -716.962  
  21067971.350 8  21067971.51446  21067973.99246 110712927.302    86269811.5964 
      2744.667        2138.704  
  22008260.692 7  22008260.45545  22008264.12645 115654177.952    90120138.1754 
      2687.500        2094.168  
  20137172.172 8  20137172.30346  20137175.57246 105821557.008    82458359.1054 
      2587.217        2016.014  
  21795012.765 7  21795012.85245  21795015.54145 114533567.577    89246938.1184 
      1655.032        1289.631  
 08  5 22  0 43 30.0000000  0  8G 2G 4G 8G10G15G24G26G29            
  21155254.510 8  21155254.24246  21155255.75246 111171613.412    86627230.4244 
     -1295.058       -1009.112  
  24295342.080 6  24295342.37343  24295347.25243 127672888.322    99485367.6264 
     -2233.240       -1740.148  
  24256165.007 6  24256164.39442  24256170.11042 127467018.337    99324955.7664 
      1320.156        1028.698  
  20902039.340 8  20902038.55145  20902041.84345 109840958.771    85590357.6794 
      -917.372        -714.847  
  21062748.696 7  21062749.11546  21062751.45246 110685482.236    86248425.8354 
      2744.288        2138.422  
  22003143.020 7  22003143.18245  22003146.35845 115627284.817    90099182.4844 
      2691.026        2096.933  
  20132250.735 8  20132251.01346  20132254.41646 105795695.652    82438207.3994 
      2585.099        2014.369  
  21791864.609 8  21791865.37246  21791867.53446 114517024.424    89234047.3474 
      1653.665        1288.583  
 08  5 22  0 43 40.0000000  0  8G 2G 4G 8G10G15G24G26G29            
  21157718.101 8  21157717.86946  21157719.38846 111184560.163    86637318.7914 
     -1294.411       -1008.633  
  24299589.281 6  24299589.20143  24299594.28343 127695205.564    99502757.6734 
     -2230.458       -1738.072  
  24253652.191 6  24253651.50942  24253657.60142 127453816.146    99314668.3574 
      1320.059        1028.617  
  20903782.198 8  20903781.52345  20903784.96746 109850118.480    85597495.1114 
      -914.565        -712.645  
  21057527.012 8  21057527.24946  21057529.56946 110658041.472    86227043.4214 
      2743.906        2138.100  
  21998019.010 8  21998019.28845  21998022.35745 115600358.561    90078200.9834 
      2694.218        2099.384  
  20127333.419 8  20127333.83846  20127337.15146 105769854.989    82418071.8184 
      2583.020        2012.745  
  21788719.738 8  21788720.55346  21788722.39746 114500496.240    89221168.2384 
      1651.955        1287.253  
 08  5 22  0 43 50.0000000  0  8G 2G 4G 8G10G15G24G26G29            
  21160181.285 8  21160180.89945  21160182.32945 111197503.466    86647404.4724 
     -1294.034       -1008.314  
  24303831.211 6  24303831.63043  24303835.59243 127717497.142    99520127.7094 
     -2227.602       -1735.721  
  24251141.105 6  24251140.04842  24251145.46642 127440617.138    99304383.4284 
      1319.845        1028.450  
  20905519.981 7  20905519.45545  20905523.07245 109859251.506    85604611.7544 
      -911.982        -710.642  
  21052305.889 7  21052306.33046  21052308.76046 110630605.653    86205664.8684 
      2743.585        2137.855  
  21992889.302 7  21992889.07245  21992892.70645 115573399.801    90057194.1514 
      2697.530        2101.959  
  20122420.358 8  20122420.76746  20122423.88046 105744035.582    82397952.8034 
      2581.102        2011.275  
  21785577.651 8  21785578.28945  21785580.02045 114483983.607    89208301.2454 
      1650.599        1286.171  
 08  5 22  0 44  0.0000000  0  7G 2G 8G10G15G24G26G29               
  21162643.534 8  21162643.30046  21162644.65746 111210443.130    86657487.3214 
     -1294.004       -1008.325  
  24248630.517 6  24248629.46442  24248635.04442 127427421.023    99294100.7364 
      1319.449        1028.219  
  20907252.722 7  20907252.21445  20907256.14445 109868357.418    85611707.2674 
      -909.397        -708.607  
  21047085.913 7  21047086.26346  21047088.73446 110603174.469    86184289.9314 
      2743.039        2137.434  
  21987753.063 7  21987752.22345  21987756.56945 115546408.229    90036161.7654 
      2701.005        2104.633  
  20117511.161 8  20117511.45946  20117514.63346 105718237.326    82377850.2654 
      2578.788        2009.447  
  21782438.420 7  21782438.46445  21782440.64645 114467486.221    89195446.1364 
      1649.217        1285.091  
 08  5 22  0 44 10.0000000  0  7G 2G 8G10G15G24G26G29               
  21165105.675 8  21165105.36945  21165106.53446 111223380.761    86667568.5784 
     -1293.712       -1008.077  
  24246120.240 6  24246119.73942  24246125.07642 127414229.599    99283821.7214 
      1318.926        1027.741  
  20908980.947 8  20908980.08545  20908984.36945 109877437.808    85618782.8924 
      -906.965        -706.711  
  21041867.258 8  21041867.54446  21041870.13846 110575749.628    86162919.9284 
      2742.363        2136.933  
  21982610.544 7  21982610.14345  21982614.34745 115519385.689    90015105.2394 
      2703.896        2106.927  
  20112606.318 8  20112606.36646  20112609.62046 105692461.884    82357765.5074 
      2576.460        2007.647  
  21779302.317 8  21779302.02645  21779304.42445 114451005.806    89182604.2444 
      1647.352        1283.646  
 08  5 22  0 44 20.0000000  0  7G 2G 8G10G15G24G26G29               
  21167567.424 8  21167567.10646  21167568.39446 111236316.729    86677648.5454 
     -1293.360       -1007.806  
  24243611.132 6  24243610.50543  24243615.72343 127401043.220    99273546.6134 
      1318.704        1027.560  
  20910704.123 7  20910703.35345  20910707.63945 109886493.060    85625838.9274 
      -904.255        -704.606  
  21036650.231 8  21036650.06546  21036652.62746 110548331.567    86141555.1984 
      2741.646        2136.342  
  21977462.452 7  21977462.49045  21977466.46745 115492332.467    89994024.8174 
      2706.874        2109.272  
  20107705.798 8  20107705.89546  20107709.13746 105666709.754    82337698.9164 
      2574.118        2005.848  
  21776169.154 8  21776169.24445  21776171.88845 114434542.735    89169775.8764 
      1645.539        1282.259  
 08  5 22  0 44 30.0000000  0  7G 2G 8G10G15G24G26G29               
  21170028.440 8  21170028.58345  21170029.73246 111249251.602    86687727.6534 
     -1293.483       -1007.893  
  24241101.542 6  24241101.60643  24241107.03143 127387862.547    99263275.9514 
      1317.805        1026.883  
  20912422.590 8  20912421.73445  20912425.85845 109895523.614    85632875.7104 
      -901.628        -702.585  
  21031433.857 8  21031433.88546  21031436.62746 110520920.940    86120196.2744 
      2740.555        2135.479  
  21972308.766 7  21972308.95545  21972312.51545 115465249.200    89972920.9724 
      2710.000        2111.708  
  20102809.935 8  20102810.16446  20102813.12346 105640981.580    82317650.9884 
      2571.605        2003.828  
  21773039.941 7  21773039.59846  21773042.65745 114418097.668    89156961.5364 
      1643.706        1280.785  
 08  5 22  0 44 40.0000000  0  7G 2G 8G10G15G24G26G29               
  21172489.974 7  21172489.94945  21172491.14945 111262186.346    86697806.6604 
     -1293.562       -1007.971  
  24238594.876 6  24238595.52142  24238600.31642 127374688.617    99253010.5674 
      1317.175        1026.307  
  20914136.300 8  20914135.90345  20914139.75946 109904530.667    85639894.1894 
      -899.595        -700.989  
  21026219.335 7  21026219.36346  21026222.02146 110493518.837    86098843.9854 
      2739.551        2134.695  
  21967149.555 7  21967149.42445  21967152.73545 115438137.051    89951794.6134 
      2712.498        2113.633  
  20097918.863 8  20097918.95746  20097921.99346 105615278.468    82297622.5924 
      2568.861        2001.684  
  21769914.258 7  21769913.94445  21769916.78845 114401671.661    89144162.0344 
      1641.369        1278.982  
 08  5 22  0 44 50.0000000  0  7G 2G 8G10G15G24G26G29               
  21174951.434 8  21174951.18145  21174952.64446 111275121.031    86707885.6314 
     -1293.478       -1007.923  
  24236088.858 6  24236088.96542  24236094.66342 127361521.585    99242750.5604 
      1316.276        1025.597  
  20915845.899 8  20915845.26445  20915848.94846 109913513.901    85646894.1034 
      -896.988        -698.996  
  21021006.409 8  21021006.44946  21021009.20246 110466125.388    86077498.4444 
      2738.812        2134.101  
  21961984.588 7  21961984.28445  21961987.83345 115410996.024    89930645.7644 
      2715.604        2116.017  
  20093032.545 8  20093032.66846  20093035.74846 105589600.507    82277613.7884 
      2566.476        1999.841  
  21766791.929 8  21766791.80745  21766794.96445 114385264.752    89131377.4304 
      1639.737        1277.684  
 08  5 22  0 45  0.0000000  0  7G 2G 8G10G15G24G26G29               
  21177412.910 7  21177412.63646  21177414.21346 111288056.308    86717965.0554 
     -1293.337       -1007.797  
  24233585.901 6  24233584.83842  24233590.31942 127348362.213    99232496.4754 
      1315.600        1025.225  
  20917551.100 7  20917550.35745  20917553.99645 109922474.026    85653876.0154 
      -894.668        -697.134  
  21015795.239 7  21015795.40646  21015798.26546 110438741.209    86056160.1234 
      2738.337        2133.787  
  21956814.145 7  21956813.51745  21956818.53244 115383826.915    89909475.0324 
      2718.424        2118.255  
  20088150.949 8  20088151.24246  20088154.36646 105563948.391    82257625.1304 
      2564.289        1998.145  
  21763673.523 7  21763673.21045  21763676.51246 114368877.724    89118608.3124 
      1637.971        1276.334  
 08  5 22  0 45 10.0000000  0  7G 2G 8G10G15G24G26G29               
  21179874.334 8  21179874.29146  21179875.87646 111300992.403    86728045.1284 
     -1293.600       -1008.009  
  24231083.282 6  24231082.11742  24231087.65642 127335210.756    99222248.5724 
      1314.629        1024.392  
  20919251.661 8  20919251.01345  20919254.57046 109931411.108    85660839.9764 
      -892.309        -695.318  
  21010586.146 8  21010586.30346  21010588.99746 110411366.642    86034829.2924 
      2737.012        2132.728  
  21951638.916 7  21951638.27845  21951643.23645 115356629.952    89888282.6024 
      2721.272        2120.434  
  20083274.821 8  20083274.53446  20083278.01546 105538322.490    82237656.8984 
      2561.373        1995.872  
  21760559.027 7  21760558.83745  21760561.94245 114352510.797    89105854.8634 
      1635.757        1274.626  
 08  5 22  0 45 20.0000000  0  7G 2G 8G10G15G24G26G29               
  21182336.757 8  21182336.51946  21182338.00346 111313931.108    86738127.2234 
     -1294.320       -1008.568  
  24228582.418 6  24228582.37843  24228587.84143 127322069.089    99212008.3064 
      1313.214        1023.299  
  20920948.596 8  20920947.45145  20920951.16645 109940327.015    85667787.4324 
      -890.810        -694.137  
  21005379.179 8  21005379.48346  21005381.95646 110384003.514    86013507.3754 
      2735.655        2131.684  
  21946458.318 7  21946458.42045  21946463.33945 115329407.021    89867069.9414 
      2723.627        2122.260  
  20078403.480 8  20078403.38646  20078406.85246 105512724.596    82217710.4834 
      2558.252        1993.474  
  21757448.581 8  21757448.92045  21757451.78345 114336165.867    89093118.5514 
      1633.476        1272.879  
 08  5 22  0 45 30.0000000  0  7G 2G 8G10G15G24G26G29               
  21184799.064 8  21184799.07346  21184800.40046 111326871.766    86748210.8384 
     -1294.251       -1008.538  
  24226084.248 6  24226084.28943  24226087.94143 127308936.598    99201775.1974 
      1312.774        1022.913  
  20922640.908 7  20922640.14145  20922643.64445 109949221.113    85674717.8954 
      -888.586        -692.413  
  21000174.279 8  21000174.41846  21000177.01246 110356651.310    85992193.9704 
      2734.534        2130.791  
  21941273.007 7  21941272.80845  21941277.75245 115302157.547    89845836.5854 
      2726.025        2124.135  
  20073537.520 8  20073537.54346  20073541.03546 105487154.184    82197785.4924 
      2555.504        1991.284  
  21754342.136 8  21754342.83946  21754345.47546 114319842.292    89080398.8884 
      1631.073        1270.953  
 08  5 22  0 45 40.0000000  0  7G 2G 8G10G15G24G26G29               
  21187262.400 7  21187262.03546  21187263.41546 111339815.088    86758296.5354 
     -1294.677       -1008.809  
  24223586.470 6  24223586.48743  24223591.01343 127295814.119    99191549.8854 
      1311.361        1021.820  
  20924328.986 8  20924328.76945  20924332.34145 109958094.027    85681631.8524 
      -886.346        -690.638  
  20994971.156 7  20994971.72946  20994974.26346 110329310.815    85970889.7004 
      2733.561        2130.059  
  21936082.310 7  21936081.93044  21936086.73544 115274882.253    89824583.1324 
      2728.663        2126.201  
  20068677.127 8  20068677.31346  20068680.43346 105461611.955    82177882.4604 
      2552.895        1989.284  
  21751240.195 8  21751241.11046  21751243.11846 114303540.754    89067696.3814 
      1629.036        1269.388  
 08  5 22  0 45 50.0000000  0  7G 2G 8G10G15G24G26G29               
  21189726.211 8  21189725.77346  21189727.08346 111352761.664    86768384.7714 
     -1294.655       -1008.806  
  24221090.853 6  24221090.12142  24221094.96442 127282702.256    99181332.8434 
      1310.632        1021.338  
  20926013.592 8  20926013.32145  20926016.81546 109966946.269    85688529.7034 
      -884.001        -688.835  
  20989771.042 8  20989771.27346  20989773.87546 110301982.626    85949595.0084 
      2732.282        2129.062  
  21930887.584 7  21930887.24944  21930891.13944 115247581.815    89803310.0524 
      2731.508        2128.402  
  20063822.057 8  20063822.33246  20063825.33146 105436098.629    82158001.9504 
      2549.976        1987.000  
  21748142.580 8  21748143.76846  21748145.16946 114287261.954    89055011.5934 
      1626.783        1267.646  
 08  5 22  0 46  0.0000000  0  7G 2G 8G10G15G24G26G29               
  21192190.302 8  21192189.93046  21192191.47146 111365711.311    86778475.3964 
     -1295.125       -1009.194  
  24218597.914 6  24218597.74342  24218602.22242 127269601.015    99171124.1024 
      1309.518        1020.323  
  20927694.495 7  20927693.95146  20927697.43246 109975777.695    85695411.3194 
      -882.095        -687.339  
  20984573.193 8  20984573.35946  20984575.69646 110274666.644    85928309.8244 
      2730.977        2128.061  
  21925686.964 7  21925687.50344  21925690.94344 115220256.144    89782017.3054 
      2733.674        2130.147  
  20058972.382 8  20058972.57246  20058975.92946 105410614.165    82138143.9234 
      2547.066        1984.721  
  21745049.245 7  21745050.34146  21745051.73346 114271005.788    89042344.4474 
      1624.348        1265.743  
 08  5 22  0 46 10.0000000  0  7G 2G 8G10G15G24G26G29               
  21194655.109 7  21194654.85546  21194656.53146 111378664.503    86788568.7844 
     -1295.423       -1009.420  
  24216107.867 6  24216107.23842  24216110.15042 127256510.800    99160923.9344 
      1308.340        1019.473  
  20929371.113 8  20929370.60146  20929374.02846 109984588.599    85702276.9534 
      -879.890        -685.640  
  20979377.443 8  20979377.70046  20979380.19646 110247363.310    85907034.5044 
      2729.497        2126.892  
  21920482.973 7  21920482.88645  21920486.86744 115192905.648    89760705.2364 
      2736.110        2132.026  
  20054128.345 8  20054128.62746  20054131.88446 105385158.925    82118308.6734 
      2544.075        1982.395  
  21741960.164 8  21741960.98846  21741962.53946 114254772.685    89029695.2664 
      1621.888        1263.801  
 08  5 22  0 46 20.0000000  0  7G 2G 8G10G15G24G26G29               
  21197120.629 7  21197120.55845  21197122.13446 111391621.730    86798665.3094 
     -1296.045       -1009.904  
  24213618.902 6  24213618.54642  24213620.86342 127243432.146    99150732.7734 
      1307.101        1018.529  
  20931044.131 8  20931043.46545  20931046.89346 109993379.509    85709127.0074 
      -878.030        -684.177  
  20974184.291 7  20974184.50346  20974187.10546 110220073.209    85885769.4944 
      2728.316        2125.960  
  21915274.042 7  21915273.68245  21915278.00445 115165530.877    89739374.2464 
      2738.761        2134.125  
  20049290.201 8  20049290.49846  20049293.64646 105359733.607    82098496.7394 
      2540.980        1979.990  
  21738875.805 8  21738875.87345  21738878.00645 114238563.229    89017064.5134 
      1619.937        1262.276  
 08  5 22  0 46 30.0000000  0  7G 2G 8G10G15G24G26G29               
  21199587.004 8  21199586.99645  21199588.54646 111404582.921    86808764.9314 
     -1296.154       -1009.994  
  24211132.795 6  24211131.64442  24211135.98042 127230365.201    99140550.7254 
      1306.268        1017.836  
  20932713.172 8  20932712.48546  20932715.90646 110002150.407    85715961.4654 
      -876.049        -682.634  
  20968993.806 7  20968993.89546  20968996.41846 110192796.374    85864514.8244 
      2727.191        2125.108  
  21910060.121 7  21910060.01645  21910064.22745 115138131.934    89718024.4264 
      2741.231        2136.024  
  20044457.620 8  20044457.90346  20044461.14646 105334338.228    82078708.1334 
      2538.136        1977.774  
  21735795.376 7  21735795.31545  21735798.03445 114222377.428    89004452.1954 
      1617.548        1260.431  
 08  5 22  0 46 40.0000000  0  7G 2G 8G10G15G24G26G29               
  21202054.349 8  21202054.38746  21202055.66046 111417548.475    86818867.9504 
     -1296.844       -1010.523  
  24208647.102 6  24208646.15442  24208651.97842 127217310.361    99130378.1354 
      1304.614        1016.573  
  20934378.539 8  20934377.85846  20934381.25146 110010901.506    85722780.4954 
      -874.220        -681.205  
  20963805.639 8  20963805.97546  20963808.43646 110165533.280    85843270.8574 
      2725.571        2123.814  
  21904842.236 7  21904841.10744  21904845.48545 115110709.210    89696656.0714 
      2743.541        2137.769  
  20039630.937 8  20039631.01946  20039634.31846 105308973.177    82058943.1624 
      2534.963        1975.285  
  21732719.960 7  21732719.66445  21732722.64645 114206215.598    88991858.5664 
      1614.929        1258.380  
 08  5 22  0 46 50.0000000  0  7G 2G 8G10G15G24G26G29               
  21204522.690 8  21204522.57546  21204523.88846 111430518.734    86828974.6384 
     -1297.410       -1010.973  
  24206165.392 6  24206165.04142  24206169.94542 127204267.996    99120215.2604 
      1303.474        1015.637  
  20936039.978 8  20936039.36245  20936042.78345 110019633.232    85729584.4364 
      -872.343        -679.771  
  20958619.965 7  20958620.75246  20958623.28046 110138284.251    85822037.8594 
      2724.098        2122.656  
  21899618.921 7  21899618.94645  21899622.43945 115083263.131    89675269.5234 
      2745.713        2139.496  
  20034810.201 8  20034810.13846  20034813.28846 105283638.937    82039202.1914 
      2531.803        1972.838  
  21729648.872 7  21729649.03745  21729652.11245 114190078.151    88979283.9294 
      1612.478        1256.467  
 08  5 22  0 47  0.0000000  0  7G 2G 8G10G15G24G26G29               
  21206991.858 8  21206991.62346  21206993.20546 111443494.242    86839085.4174 
     -1297.907       -1011.366  
  24203686.182 6  24203686.06842  24203690.62142 127191238.845    99110062.6894 
      1302.015        1014.604  
  20937698.079 8  20937697.40745  20937700.88545 110028346.015    85736373.6124 
      -870.386        -678.247  
  20953437.753 8  20953438.15446  20953440.85946 110111049.966    85800816.3394 
      2722.615        2121.498  
  21894391.692 7  21894392.07445  21894394.71045 115055794.341    89653865.2654 
      2747.832        2141.151  
  20029994.987 8  20029995.16546  20029998.25046 105258336.017    82019485.6344 
      2528.663        1970.361  
  21726582.989 8  21726583.47745  21726586.24346 114173965.758    88966728.8144 
      1609.849        1254.428  
 08  5 22  0 47 10.0000000  0  7G 2G 8G10G15G24G26G29               
  21209462.045 8  21209461.81746  21209463.46946 111456475.851    86849200.9434 
     -1298.489       -1011.812  
  24201209.648 6  24201210.03142  24201214.36043 127178223.730    99099921.0434 
      1300.738        1013.521  
  20939352.466 8  20939351.79445  20939355.48046 110037040.462    85743148.5004 
      -868.584        -676.838  
  20948258.115 8  20948258.51746  20948261.13946 110083831.259    85779606.9574 
      2721.266        2120.472  
  21889160.353 7  21889161.07345  21889163.71745 115028303.707    89632443.9734 
      2750.196        2142.970  
  20025186.169 8  20025186.18446  20025189.34146 105233065.484    81999794.3114 
      2525.556        1967.966  
  21723521.798 8  21723522.19946  21723525.00646 114157879.237    88954193.8674 
      1607.469        1252.543  
 08  5 22  0 47 20.0000000  0  7G 2G 8G10G15G24G26G29               
  21211933.567 8  21211933.36045  21211935.11846 111469463.831    86859321.4394 
     -1299.145       -1012.305  
  24198736.261 6  24198735.61443  24198740.95243 127165223.043    99089790.6324 
      1299.534        1012.608  
  20941003.495 8  20941002.88845  20941006.57745 110045717.097    85749909.5064 
      -866.707        -675.346  
  20943081.592 8  20943081.95646  20943084.72246 110056628.580    85758410.0674 
      2719.573        2119.142  
  21883925.356 7  21883925.10545  21883929.11745 115000791.646    89611005.9944 
      2752.424        2144.758  
  20020383.583 8  20020383.61646  20020386.69046 105207827.662    81980128.4734 
      2522.204        1965.357  
  21720465.852 7  21720465.77246  21720468.76046 114141819.082    88941679.4544 
      1604.881        1250.538  
 08  5 22  0 47 30.0000000  0  7G 2G 8G10G15G24G26G29               
  21214406.171 8  21214406.05545  21214407.76746 111482458.265    86869446.9644 
     -1299.627       -1012.712  
  24196264.579 6  24196264.47543  24196270.13043 127152236.870    99079671.5264 
      1298.067        1011.496  
  20942651.470 8  20942650.58945  20942654.33345 110054375.990    85756656.6894 
      -865.135        -674.111  
  20937908.437 8  20937908.69046  20937911.34646 110029442.046    85737225.7514 
      2717.872        2117.823  
  21878686.196 7  21878685.40345  21878690.10045 114973258.205    89589551.3724 
      2754.272        2146.191  
  20015587.191 8  20015587.27946  20015590.39946 105182622.700    81960488.2424 
      2518.846        1962.747  
  21717414.748 8  21717415.06845  21717417.61945 114125785.391    88929185.6644 
      1601.904        1248.236  
 08  5 22  0 47 40.0000000  0  7G 2G 8G10G15G24G26G29               
  21216880.244 7  21216880.13545  21216881.82545 111495459.912    86879578.1114 
     -1300.620       -1013.459  
  24193796.382 6  24193796.05743  24193801.23943 127139266.035    99069564.3904 
      1295.935        1009.815  
  20944295.849 8  20944295.00145  20944298.70645 110063017.805    85763390.5644 
      -863.501        -672.857  
  20932737.723 7  20932738.47646  20932740.97046 110002272.352    85716054.5664 
      2716.385        2116.656  
  21873442.385 7  21873441.86245  21873446.85845 114945704.156    89568080.6984 
      2756.478        2147.922  
  20010797.336 8  20010797.35446  20010800.49346 105157451.347    81940874.2014 
      2515.583        1960.203  
  21714368.646 8  21714369.23345  21714371.40146 114109778.702    88916712.9114 
      1599.455        1246.346  
 08  5 22  0 47 50.0000000  0  7G 2G 8G10G15G24G26G29               
  21219355.999 8  21219355.73345  21219357.47246 111508468.962    86889715.0274 
     -1301.120       -1013.864  
  24191330.706 6  24191330.56443  24191335.85742 127126310.829    99059469.4294 
      1295.101        1009.185  
  20945937.095 8  20945936.10145  20945939.84445 110071642.642    85770111.2104 
      -861.180        -671.059  
  20927570.916 8  20927571.46346  20927574.00846 109975119.878    85694896.7964 
      2714.180        2114.926  
  21868194.770 7  21868195.18845  21868199.14045 114918129.802    89546594.1904 
      2758.622        2149.521  
  20006013.793 8  20006013.82546  20006017.14546 105132313.922    81921286.5964 
      2512.007        1957.408  
  21711328.606 8  21711328.36945  21711330.50945 114093799.362    88904261.4664 
      1596.611        1244.097  
 08  5 22  0 48  0.0000000  0  7G 2G 8G10G15G24G26G29               
  21221833.030 8  21221833.01646  21221834.40245 111521486.005    86899858.1694 
     -1302.126       -1014.632  
  24188868.215 6  24188868.40942  24188873.42142 127113372.057    99049387.2754 
      1293.159        1007.654  
  20947575.343 7  20947574.25645  20947578.03645 110080251.107    85776819.1064 
      -859.939        -670.097  
  20922407.417 8  20922407.87246  20922410.55046 109947985.304    85673752.9784 
      2712.418        2113.567  
  21862943.884 7  21862944.65645  21862947.66245 114890535.778    89525092.3454 
      2760.456        2151.012  
  20001237.127 8  20001237.00446  20001240.25646 105107211.141    81901725.9874 
      2508.419        1954.609  
  21708293.089 8  21708292.70645  21708295.24446 114077848.051    88891831.8714 
      1593.730        1241.866  
 08  5 22  0 48 10.0000000  0  7G 2G 8G10G15G24G26G29               
  21224311.829 8  21224311.72446  21224313.18945 111534511.653    86910008.0154 
     -1302.898       -1015.229  
  24186409.659 5  24186408.36542  24186414.10742 127100450.361    99039318.4234 
      1291.365        1006.302  
  20949210.293 8  20949209.55245  20949213.21645 110088843.813    85783514.7174 
      -858.345        -668.864  
  20917247.806 7  20917247.99646  20917250.48146 109920869.314    85652623.6304 
      2710.696        2112.226  
  21857689.834 7  21857689.83845  21857692.80845 114862922.815    89503575.7544 
      2762.249        2152.426  
  19996466.840 8  19996466.81346  19996469.96246 105082143.595    81882192.8384 
      2505.101        1952.029  
  21705262.846 7  21705262.49445  21705265.15446 114061925.455    88879424.6454 
      1590.859        1239.626  
 08  5 22  0 48 20.0000000  0  7G 2G 8G10G15G24G26G29               
  21226792.218 7  21226791.95746  21226793.71646 111547546.069    86920164.6884 
     -1303.814       -1015.953  
  24183954.309 6  24183953.37142  24183958.02542 127087545.876    99029263.0114 
      1289.691        1004.905  
  20950842.141 8  20950841.33945  20950845.56445 110097420.724    85790198.0274 
      -856.792        -667.617  
  20912091.436 7  20912091.32646  20912094.14346 109893772.082    85631508.9114 
      2708.703        2110.658  
  21852431.378 7  21852431.01045  21852434.85445 114835291.147    89482044.5894 
      2764.051        2153.789  
  19991703.469 8  19991703.41246  19991706.39246 105057111.564    81862687.3574 
      2501.434        1949.168  
  21702238.108 8  21702238.02545  21702240.56846 114046031.745    88867039.9334 
      1587.874        1237.301  
 08  5 22  0 48 30.0000000  0  7G 2G 8G10G15G24G26G29               
  21229274.026 8  21229273.96245  21229275.64945 111560589.312    86930328.2424 
     -1305.094       -1016.957  
  24181501.642 5  24181500.98742  24181506.67342 127074658.718    99019221.0884 
      1287.419        1003.203  
  20952471.574 8  20952470.65946  20952474.67145 110105982.028    85796869.1654 
      -855.842        -666.889  
  20906938.630 8  20906938.32246  20906941.23646 109866693.706    85610408.8774 
      2706.853        2109.228  
  21847169.425 7  21847169.86145  21847173.61545 114807640.896    89460498.9434 
      2765.659        2155.042  
  19986946.623 8  19986946.81746  19986949.89746 105032115.134    81843209.6204 
      2497.790        1946.319  
  21699219.484 8  21699219.38145  21699221.48345 114030166.991    88854677.7884 
      1584.972        1235.033  
 08  5 22  0 48 40.0000000  0  7G 2G 8G10G15G24G26G29               
  21231758.394 8  21231758.07845  21231759.51345 111573642.988    86940499.9304 
     -1305.897       -1017.583  
  24179052.396 6  24179051.64642  24179058.34642 127061790.507    99009193.9314 
      1285.754        1001.840  
  20954098.271 8  20954097.20246  20954101.21246 110114529.160    85803529.2654 
      -854.022        -665.471  
  20901789.554 8  20901789.49146  20901792.26246 109839635.809    85589324.8014 
      2704.964        2107.751  
  21841904.251 7  21841904.93145  21841909.16745 114779973.658    89438940.0614 
      2767.621        2156.580  
  19982197.098 8  19982197.31246  19982200.34746 105007156.019    81823760.9604 
      2494.206        1943.534  
  21696206.183 8  21696206.30145  21696208.57046 114014332.831    88842339.4684 
      1582.039        1232.779  
 08  5 22  0 48 50.0000000  0  7G 2G 8G10G15G24G26G29               
  21234244.285 8  21234244.01945  21234245.86446 111586706.825    86950679.5314 
     -1306.802       -1018.299  
  24176608.472 6  24176607.17042  24176613.90542 127048941.102    98999181.4284 
      1284.114        1000.570  
  20955721.613 8  20955721.09745  20955725.12345 110123061.870    85810178.1334 
      -852.633        -664.385  
  20896644.522 8  20896644.60146  20896647.13746 109812598.327    85568256.6344 
      2702.768        2106.063  
  21836636.702 7  21836636.54045  21836640.93245 114752289.246    89417367.8034 
      2769.267        2157.864  
  19977454.595 8  19977454.79346  19977457.90146 104982234.068    81804341.2604 
      2490.346        1940.534  
  21693198.828 8  21693199.06245  21693201.34546 113998529.077    88830024.8564 
      1578.732        1230.192  
 08  5 22  0 49  0.0000000  0  7G 2G 8G10G15G24G26G29               
  21236732.279 7  21236731.99445  21236733.91245 111599781.421    86960867.5214 
     -1308.149       -1019.353  
