     2.00           OBSERVATION DATA    G (GPS)             RINEX VERSION / TYPE
teqc  1999Jul19     autorun             20080926 04:10:40UTCPGM / RUN BY / DATE
MSWinNT 4.0|PentPro|wcl386 10.6|MSWin95/98/NT|486/DX+       COMMENT
BIT 2 OF LLI FLAGS DATA COLLECTED UNDER A/S CONDITION       COMMENT
BJFS                                                        MARKER NAME
21601M001                                                   MARKER NUMBER
QUFENG              CASM                                    OBSERVER / AGENCY
3332                ASHTECH Z-XII3      CD00-1D02           REC # / TYPE / VERS
1126                ASH700936B_M    SNOW                    ANT # / TYPE
        0.0000        0.0000        0.0000                  APPROX POSITION XYZ
        0.0460        0.0000        0.0000                  ANTENNA: DELTA H/E/N
     1     1                                                WAVELENGTH FACT L1/2
     5    L1    L2    C1    P1    P2                        # / TYPES OF OBSERV
    30.0000                                                 INTERVAL
 SNR is mapped to RINEX snr flag value [1-9]                COMMENT
  L1: 1 -> 1;  90 -> 5; 210 -> 9                            COMMENT
  L2: 1 -> 1; 150 -> 5; 250 -> 9                            COMMENT
  2008     9    25     0     0   30.0000000     GPS         TIME OF FIRST OBS
                                                            END OF HEADER
 08  9 25  0  0 30.0000000  0  8G14G12G22G31G30G16G32G29
 -21009913.42949 -15911536.79647  20608174.910    20608174.678    20608176.662
  -7015139.24649  -5440334.02545  24737504.001    24737503.493    24737506.400
  -8340978.44549  -6475913.74745  23161214.536    23161214.805    23161215.478
 -25394918.59549 -19757915.29647  20988669.925    20988670.186    20988671.555
 -26270020.17549 -20442316.68047  20929497.958    20929498.170    20929500.859
  -3249420.14849  -2477891.82045  23816310.826    23816309.742    23816312.811
 -10055845.55649  -7805160.51746  22760031.388    22760031.188    22760034.449
  -2791038.78149  -2155474.58245  23867139.862    23867140.542    23867143.089
 08  9 25  0  1  0.0000000  0  9G14G12G22G31G30G16G32G29G20
 -20988053.87249 -15894503.38647  20612334.663    20612334.448    20612336.555
  -6912413.75349  -5360288.17345  24757052.046    24757052.809    24757055.237
  -8236255.59149  -6394311.56245  23181142.687    23181143.059    23181143.905
 -25422743.23849 -19779596.83147  20983375.077    20983375.431    20983376.775
 -26219114.19249 -20402649.68947  20939184.994    20939185.573    20939187.666
  -3361994.86249  -2565612.36345  23794888.514    23794888.222    23794891.095
 -10111652.00149  -7848646.06646  22749411.757    22749411.340    22749414.703
  -2854737.44849  -2205109.91745  23855018.439    23855018.884    23855021.605
  -1071839.06149   -805399.55644                                  24143978.610
 08  9 25  0  1 30.0000000  0  9G14G12G22G31G30G16G32G29G20
 -20965798.14249 -15877161.27047  20616569.741    20616569.376    20616571.728
  -6809539.84749  -5280126.77945  24776628.057    24776629.466    24776631.394
  -8131378.03449  -6312588.82645  23201100.300    23201100.752    23201101.626
 -25450307.52449 -19801075.48947  20978129.716    20978130.053    20978131.229
 -26167674.67749 -20362566.96147  20948973.642    20948974.157    20948976.530
  -3474424.74449  -2653220.04945  23773493.864    23773494.762    23773496.159
 -10167021.16449  -7891790.86846  22738875.338    22738874.984    22738879.100
  -2918141.57049  -2254515.69945  23842952.982    23842952.897    23842955.546
  -1151860.84449   -867754.18045  24128749.900    24128747.716    24128752.003
 08  9 25  0  2  0.0000000  0  9G14G12G22G31G30G16G32G29G20
 -20943146.16049 -15859510.38547  20620880.278    20620879.972    20620882.226
  -6706519.92349  -5199851.53845  24796231.853    24796232.565    24796236.914
  -8026348.95849  -6230748.03145  23221086.826    23221086.776    23221087.526
 -25477612.02749 -19822351.71447  20972933.777    20972934.020    20972935.566
 -26115703.94449 -20322070.29447  20958863.404    20958864.250    20958865.844
  -3586707.62449  -2740713.16645  23752127.181    23752127.804    23752128.893
 -10221951.50749  -7934593.74946  22728422.446    22728421.012    22728425.800
  -2981248.79749  -2303690.14945  23830943.946    23830944.051    23830946.984
  -1231501.89049   -929812.14745  24113595.039    24113593.836    24113596.409
 08  9 25  0  2 30.0000000  0  9G14G12G22G31G30G16G32G29G20
 -20920097.88949 -15841550.69847  20625266.257    20625265.965    20625268.094
  -6603357.29749  -5119465.12545  24815862.822    24815863.305    24815865.569
  -7921171.29649  -6148791.44545  23241101.482    23241101.790    23241101.485
 -25504657.95749 -19843426.45347  20967787.039    20967787.513    20967788.766
 -26063204.52349 -20281161.65647  20968853.779    20968854.174    20968856.313
  -3698841.67149  -2828090.34145  23730788.791    23730788.127    23730791.191
 -10276441.70649  -7977053.65046  22718053.269    22718053.709    22718055.912
  -3044056.72549  -2352631.38945  23818992.163    23818992.405    23818994.210
  -1310760.41749   -991572.03445  24098512.256    24098511.668    24098514.772
 08  9 25  0  3  0.0000000  0  9G14G12G22G31G30G16G32G29G20
 -20896651.07249 -15823280.45947  20629728.049    20629727.927    20629729.750
  -6500052.71649  -5038968.10845  24835520.772    24835521.476    24835524.093
  -7815846.35049  -6066720.10845  23261144.257    23261144.265    23261144.339
 -25531443.89049 -19864298.60347  20962689.856    20962690.112    20962691.526
 -26010176.96849 -20239841.48947  20978944.571    20978945.158    20978947.200
  -3810822.74249  -2915348.28545  23709479.362    23709478.939    23709481.751
 -10330488.25349  -8019167.83846  22707768.637    22707767.650    22707771.356
  -3106560.82549  -2401335.87445  23807098.127    23807098.049    23807101.319
  -1389631.97649  -1053030.38345  24083503.401    24083501.689    24083506.850
 08  9 25  0  3 30.0000000  0  9G14G12G22G31G30G16G32G29G20
 -20872805.18349 -15804699.26147  20634265.774    20634265.675    20634267.635
  -6396608.93849  -4958362.63545  24855205.439    24855205.429    24855209.611
  -7710377.06749  -5984536.28845  23281214.538    23281214.591    23281214.443
 -25557970.50949 -19884968.68947  20957641.969    20957642.296    20957643.782
 -25956623.79249 -20198111.74747  20989135.381    20989135.494    20989137.646
  -3922648.74949  -3002485.41245  23688199.514    23688198.981    23688202.706
 -10384089.59449  -8060935.12446  22697568.416    22697568.021    22697570.959
  -3168758.36149  -2449801.47345  23795262.332    23795262.183    23795265.593
  -1468114.60849  -1114185.69345  24068568.542    24068567.977    24068570.598
 08  9 25  0  4  0.0000000  0  9G14G12G22G31G30G16G32G29G20
 -20848559.30149 -15785806.37347  20638879.586    20638879.421    20638881.277
  -6293028.12549  -4877650.37545  24874916.332    24874917.263    24874921.574
  -7604765.93449  -5902241.94545  23301311.877    23301312.917    23301312.161
 -25584237.82349 -19905436.71847  20952643.424    20952644.066    20952645.312
 -25902547.08849 -20155974.05347  20999425.797    20999426.050    20999428.442
  -4034317.19649  -3089499.77845  23666949.837    23666949.422    23666951.430
 -10437243.67849  -8102353.88946  22687453.541    22687453.653    22687456.393
  -3230646.16049  -2498025.71845  23783485.376    23783485.616    23783488.071
  -1546205.42449  -1175035.66745  24053708.418    24053708.074    24053711.945
 08  9 25  0  4 30.0000000  0  9G14G12G22G31G30G16G32G29G20
 -20823911.74349 -15766600.49747  20643569.831    20643569.824    20643571.785
  -6189311.42049  -4796832.20845  24894653.161    24894653.560    24894657.483
  -7499014.73549  -5819838.47145  23321435.854    23321436.246    23321436.220
 -25610245.35849 -19925702.32247  20947694.421    20947694.733    20947696.221
 -25847947.73349 -20113429.10447  21009815.791    21009816.137    21009818.412
  -4145824.50749  -3176388.57745  23645730.875    23645730.771    23645732.665
 -10489947.53349  -8143421.83046  22677424.499    22677424.096    22677427.471
  -3292220.32349  -2546005.57245  23771768.071    23771767.868    23771771.859
  -1623901.02549  -1235577.69245  24038923.399    24038922.700    24038926.955
 08  9 25  0  5  0.0000000  0  9G14G12G22G31G30G16G32G29G20
 -20798864.72049 -15747083.35147  20648336.196    20648336.134    20648337.993
  -6085463.58849  -4715911.85145  24914414.829    24914415.549    24914418.226
  -7393128.02149  -5737329.37645  23341585.432    23341585.177    23341586.518
 -25635995.74849 -19945767.55547  20942794.288    20942794.745    20942795.899
 -25792830.28349 -20070480.44447  21020304.315    21020304.676    21020306.811
  -4257170.70849  -3263151.85345  23624542.387    23624542.070    23624544.120
 -10542201.82049  -8184139.45946  22667480.799    22667480.939    22667484.009
  -3353480.40949  -2593740.70145  23760110.622    23760110.708    23760113.469
  -1701201.32849  -1295811.67445  24024213.733    24024213.983    24024216.637
 08  9 25  0  5 30.0000000  0  9G14G12G22G31G30G16G32G29G20
 -20773416.35549 -15727253.47347  20653178.921    20653178.742    20653180.648
  -5981486.10449  -4634890.49145  24934201.300    24934201.042    24934204.357
  -7287107.77149  -5654716.24745  23361760.303    23361760.730    23361761.769
 -25661488.29349 -19965631.86547  20937943.192    20937943.533    20937944.821
 -25737196.21949 -20027129.22147  21030891.128    21030891.457    21030893.950
  -4368352.24049  -3349786.78645  23603385.289    23603385.087    23603387.076
 -10594003.72949  -8224504.58546  22657623.243    22657623.224    22657625.997
  -3414422.62849  -2641228.11545  23748513.611    23748514.076    23748517.154
  -1778102.98549  -1355735.04045  24009579.783    24009578.355    24009582.754
 08  9 25  0  6  0.0000000  0  9G14G12G22G31G30G16G32G29G20
 -20747566.59249 -15707110.81047  20658097.915    20658097.707    20658099.846
  -5877381.74549  -4553770.29245  24954011.797    24954012.377    24954015.708
  -7180956.88449  -5572001.31045  23381960.428    23381960.955    23381961.161
 -25686723.56949 -19985295.71147  20933141.107    20933141.578    20933142.767
 -25681047.63349 -19983377.07847  21041575.856    21041576.420    21041578.489
  -4479366.81149  -3436291.62645  23582260.118    23582260.811    23582261.803
 -10645351.69349  -8264515.98646  22647852.090    22647852.058    22647855.574
  -3475044.35149  -2688465.80445  23736977.619    23736977.582    23736980.590
  -1854603.49849  -1415345.81345  23995022.029    23995020.823    23995024.866
 08  9 25  0  6 30.0000000  0  9G14G12G22G31G30G16G32G29G20
 -20721314.07949 -15686654.32647  20663093.610    20663093.688    20663095.930
  -5773152.49849  -4472552.76245  24973846.222    24973845.147    24973849.338
  -7074677.67349  -5489186.38045  23402184.759    23402183.905    23402185.222
 -25711701.78849 -20004759.24747  20928387.859    20928388.278    20928389.493
 -25624386.66149 -19939225.67347  21052358.118    21052358.126    21052360.371
  -4590211.92949  -3522664.42145  23561167.125    23561166.604    23561169.723
 -10696243.77549  -8304172.16646  22638167.644    22638166.783    22638170.508
  -3535342.12649  -2735451.06245  23725503.267    23725503.206    23725506.481
  -1930700.61249  -1474642.26545  23980540.946    23980540.277    23980543.777
 08  9 25  0  7  0.0000000  0  9G14G12G22G31G30G16G32G29G20
 -20694659.21649 -15665884.31547  20668165.882    20668165.936    20668167.993
  -5668801.66449  -4391240.47745  24993703.545    24993703.129    24993707.323
  -6968273.73549  -5406274.27845  23422432.727    23422432.367    23422432.601
 -25736423.88649 -20024023.20847  20923683.406    20923683.725    20923685.026
 -25567216.24249 -19894677.29747  21063237.215    21063237.444    21063239.794
  -4700886.13149  -3608904.05145  23540106.445    23540106.843    23540108.693
 -10746679.00349  -8343472.33946  22628569.984    22628569.048    22628573.529
  -3595314.11949  -2782182.45745  23714090.975    23714091.156    23714093.709
  -2006392.58349  -1533623.01445  23966137.330    23966136.959    23966140.059
 08  9 25  0  7 30.0000000  0  9G14G12G22G31G30G16G32G29G20
 -20667601.43049 -15644800.33147  20673314.820    20673314.482    20673316.565
  -5564331.15049  -4309834.94345  25013583.581    25013583.656    25013586.556
  -6861747.63949  -5323266.97245  23442703.783    23442703.284    23442704.684
 -25760889.90949 -20043087.63347  20919027.694    20919028.158    20919029.376
 -25509538.50349 -19849733.60347  21074212.943    21074213.116    21074215.496
  -4811386.56849  -3695008.26345  23519078.798    23519078.351    23519081.018
 -10796655.29649  -8382414.90746  22619059.815    22619060.141    22619062.876
  -3654957.30249  -2828657.62945  23702741.240    23702741.733    23702744.528
  -2081676.30349  -1592285.65245  23951811.309    23951810.117    23951814.505
 08  9 25  0  8  0.0000000  0  9G14G12G22G31G30G16G32G29G20
 -20640139.16449 -15623401.17447  20678540.725    20678540.614    20678542.767
  -5459742.55049  -4228337.39545  25033486.219    25033486.518    25033489.955
  -6755100.79649  -5240165.58045  23462997.860    23462997.405    23462998.581
 -25785099.68049 -20061952.38147  20914420.769    20914421.128    20914422.492
 -25451354.74649 -19804395.61747  21085284.846    21085285.081    21085287.566
  -4921710.00549  -3780974.56845  23498084.908    23498083.915    23498087.853
 -10846170.01349  -8420997.81146  22609637.559    22609637.783    22609640.542
  -3714267.82649  -2874873.59046  23691454.811    23691455.087    23691458.403
  -2156548.97249  -1650627.98645  23937563.343    23937562.480    23937566.349
 08  9 25  0  9 30.0000000  0  9G14G12G22G31G30G16G32G29G20
 -20555348.37949 -15557330.46047  20694675.844    20694675.324    20694677.801
  -5145318.34449  -3983331.72245  25093319.265    25093320.146    25093323.560
  -6434490.99549  -4990339.89645  23524007.641    23524007.059    23524009.120
 -25856221.31249 -20117371.81547  20900886.789    20900887.297    20900888.232
 -25273817.31549 -19666054.77047  21119069.043    21119069.382    21119071.475
  -5251621.91949  -4038048.75245  23435304.840    23435304.796    23435307.293
 -10991955.79849  -8534597.13346  22581895.537    22581895.019    22581898.453
  -3890203.29849  -3011966.07146  23657975.407    23657975.584    23657979.244
  -2378703.66949  -1823735.51645  23895288.802    23895287.846    23895291.791
 08  9 25  0 10  0.0000000  0  9G14G12G22G31G30G16G32G29G20
 -20526259.55449 -15534663.85647  20700211.228    20700210.992    20700213.153
  -5040276.83749  -3901481.24745  25113307.980    25113307.669    25113311.966
  -6327384.93849  -4906880.69445  23544389.232    23544390.248    23544390.376
 -25879405.07349 -20135437.08048  20896475.068    20896475.611    20896476.628
 -25213628.52349 -19619154.42247  21130522.637    21130522.983    21130525.205
  -5361209.70949  -4123441.82245  23414451.087    23414451.023    23414454.185
 -11039603.72149  -8571725.39046  22572828.465    22572828.456    22572830.727
  -3948151.51149  -3057120.48646  23646948.224    23646948.678    23646951.231
  -2451904.37549  -1880775.03345  23881359.067    23881358.080    23881362.591
 08  9 25  0 10 30.0000000  0  9G14G12G22G31G30G16G32G29G20
 -20496769.21049 -15511684.38447  20705823.121    20705822.837    20705824.951
  -4935134.14649  -3819551.95245  25133315.990    25133315.638    25133319.492
  -6220176.84649  -4823341.96545  23564790.553    23564790.975    23564792.280
 -25902339.54949 -20153308.09448  20892110.802    20892110.993    20892112.507
 -25152950.38649 -19571872.76147  21142069.360    21142070.089    21142071.942
  -5470613.70349  -4208691.68045  23393632.301    23393632.355    23393635.152
 -11086786.99749  -8608491.58946  22563849.884    22563850.511    22563852.480
  -4005758.41649  -3102008.97046  23635986.013    23635986.257    23635989.216
  -2524687.36949  -1937489.06445  23867508.869    23867508.148    23867511.832
 08  9 25  0 11  0.0000000  0  9G14G12G22G31G30G16G32G29G20
 -20466875.20549 -15488390.37047  20711511.758    20711511.879    20711513.588
  -4829890.99049  -3737544.35345  25153343.148    25153344.562    25153347.187
  -6112867.92349  -4739724.66145  23585210.987    23585211.938    23585212.676
 -25925023.26049 -20170983.71147  20887794.145    20887794.401    20887796.059
 -25091783.56449 -19524210.30747  21153709.058    21153709.202    21153711.676
  -5579830.09449  -4293795.33945  23372849.205    23372848.314    23372851.926
 -11133502.44849  -8644893.24646  22554960.281    22554960.106    22554962.999
  -4063019.60549  -3146628.06746  23625089.412    23625089.521    23625091.878
  -2597048.31549  -1993874.23245  23853739.236    23853738.920    23853741.911
 08  9 25  0 11 30.0000000  0  9G14G12G22G31G30G16G32G29G20
 -20436576.52349 -15464781.02147  20717277.415    20717277.517    20717279.181
  -4724549.10549  -3655459.82345  25173388.916    25173390.125    25173393.860
  -6005460.25649  -4656030.42645  23605650.153    23605650.198    23605651.196
 -25947456.20149 -20188463.92147  20883525.258    20883525.596    20883526.955
 -25030130.10949 -19476168.64847  21165441.280    21165441.670    21165443.899
  -5688855.71449  -4378750.36145  23352102.345    23352101.177    23352104.920
 -11179747.81149  -8680928.59346  22546160.094    22546159.848    22546163.320
  -4119931.77449  -3190975.21646  23614259.407    23614259.968    23614263.029
  -2668984.78749  -2049928.62245  23840050.213    23840049.797    23840052.837
 08  9 25  0 12  0.0000000  0  9G14G12G22G31G30G16G32G29G20
 -20405870.89649 -15440854.57547  20723120.571    20723120.412    20723122.488
  -4619109.04549  -3573298.80445  25193453.694    25193454.964    25193456.556
  -5897954.64549  -4572259.86145  23626107.845    23626107.526    23626109.682
 -25969636.91649 -20205747.59647  20879304.418    20879304.848    20879305.929
 -24967990.58949 -19427748.24847  21177266.053    21177266.324    21177268.528
  -5797686.86649  -4463553.83845  23331392.378    23331391.993    23331393.942
 -11225519.75249  -8716595.04146  22537450.025    22537449.828    22537453.027
  -4176490.39049  -3235046.84745  23603496.843    23603498.018    23603499.902
  -2740492.88949  -2105649.20945  23826442.758    23826442.187    23826445.592
 08  9 25  0 12 30.0000000  0  9G14G12G22G31G30G16G32G29G20
 -20374758.82749 -15416611.41547  20729041.047    20729040.894    20729043.006
  -4513573.78849  -3491063.58845  25213536.686    25213537.101    25213540.358
  -5790354.60449  -4488415.72245  23646583.383    23646583.051    23646584.302
 -25991566.56849 -20222835.63347  20875131.351    20875131.767    20875132.874
 -24905368.24949 -19378951.62147  21189182.724    21189183.344    21189185.264
  -5906321.72649  -4548204.36145  23310719.718    23310718.965    23310721.552
 -11270817.52849  -8751892.01346  22528830.136    22528829.986    22528832.512
  -4232693.42149  -3278841.39845  23592801.838    23592801.034    23592804.555
  -2811571.05749  -2161034.79745  23812917.129    23812916.211    23812919.893
 08  9 25  0 13  0.0000000  0  9G14G12G22G31G30G16G32G29G20
 -20343239.73349 -15392051.09747  20735038.991    20735038.781    20735040.792
  -4407945.60349  -3408755.97145  25233637.391    25233637.526    25233640.665
  -5682663.06249  -4404500.28745  23667076.284    23667076.504    23667077.522
 -26013245.51449 -20239728.31547  20871005.967    20871006.353    20871007.508
 -24842265.29849 -19329780.49447  21201190.858    21201191.051    21201193.168
  -6014758.08449  -4632700.20845  23290084.819    23290084.070    23290086.403
 -11315639.61549  -8786818.32546  22520300.794    22520300.380    22520303.655
  -4288538.44249  -3322357.00945  23582174.786    23582174.740    23582176.594
  -2882216.82749  -2216083.46245  23799473.647    23799472.048    23799476.480
 08  9 25  0 13 30.0000000  0  9G14G12G22G31G30G16G32G29G20
 -20311312.30449 -15367172.59247  20741114.583    20741114.555    20741116.374
  -4302225.83849  -3326376.97245  25253755.388    25253755.669    25253758.929
  -5574880.95449  -4320514.27945  23687586.441    23687586.565    23687588.115
 -26034673.37249 -20256425.34348  20866928.421    20866928.906    20866929.981
 -24778682.97749 -19280235.82947  21213290.121    21213290.734    21213292.855
  -6122992.35949  -4717038.60045  23269488.308    23269487.909    23269491.114
 -11359983.19849  -8821371.77146  22511862.492    22511862.092    22511865.365
  -4344021.27549  -3365590.40545  23571616.672    23571616.559    23571619.512
  -2952426.79149  -2270792.52145  23786113.085    23786112.967    23786116.186
 08  9 25  0 14  0.0000000  0  9G14G12G22G31G30G16G32G29G20
 -20278975.51449 -15341975.10247  20747268.108    20747268.125    20747269.922
  -4196416.37549  -3243928.07745  25273890.328    25273890.600    25273893.498
  -5467010.78349  -4236459.64945  23708113.336    23708113.235    23708114.565
 -26055849.19649 -20272925.98448  20862898.788    20862899.036    20862900.479
 -24714623.45149 -19230319.31647  21225480.311    21225480.596    21225482.536
  -6231021.73549  -4801217.33245  23248930.890    23248930.360    23248932.517
 -11403846.30549  -8855550.81846  22503515.637    22503515.091    22503518.459
  -4399138.53249  -3408538.93645  23561127.801    23561128.140    23561130.872
  -3022198.23049  -2325159.85945  23772836.081    23772835.428    23772839.094
 08  9 25  0 14 30.0000000  0  9G14G12G22G31G30G16G32G29G20
 -20246230.20149 -15316459.28847  20753499.319    20753499.161    20753501.281
  -4090520.47649  -3161411.86445  25294041.837    25294042.948    25294043.228
  -5359056.63449  -4152339.57745  23728656.293    23728656.903    23728657.690
 -26076775.03449 -20289231.83248  20858916.661    20858917.102    20858918.138
 -24650089.97149 -19180033.48647  21237760.562    21237761.234    21237762.892
  -6338844.68649  -4885235.20945  23228412.726    23228412.205    23228415.415
 -11447228.41049  -8889355.06146  22495260.250    22495260.395    22495263.591
  -4453889.00749  -3451201.66145  23550709.216    23550710.023    23550713.219
  -3091530.11849  -2379184.71345  23759642.545    23759642.402    23759646.366
 08  9 25  0 15  0.0000000  0  9G14G12G22G31G30G16G32G29G20
 -20213076.23649 -15290625.04147  20759808.313    20759808.234    20759810.550
  -3984540.63749  -3078830.22245  25314209.323    25314209.447    25314212.280
  -5251021.09949  -4068156.08645  23749215.020    23749215.560    23749217.004
 -26097451.56749 -20305343.41448  20854982.054    20854982.476    20854983.964
 -24585085.48749 -19129380.63647  21250130.520    21250130.881    21250132.976
  -6446459.53249  -4969090.91745  23207934.268    23207933.982    23207938.057
 -11490128.37649  -8922783.61446  22487096.570    22487095.788    22487099.936
  -4508270.38549  -3493576.77646  23540361.148    23540361.847    23540364.102
  -3160420.20249  -2432865.30345  23746533.149    23746533.047    23746536.646
 08  9 25  0 15 30.0000000  0  9G14G12G22G31G30G16G32G29G20
 -20179513.22149 -15264472.04747  20766195.140    20766194.862    20766197.102
  -3878479.31949  -2996185.07245  25334392.197    25334393.634    25334394.541
  -5142907.02749  -3983911.40245  23769788.577    23769788.008    23769790.556
 -26117879.31249 -20321261.13448  20851094.769    20851095.127    20851096.447
 -24519612.70049 -19078362.88147  21262589.576    21262590.045    21262592.444
  -6553864.06649  -5052782.77045  23187495.881    23187495.871    23187497.250
 -11532545.01349  -8955835.54446  22479025.003    22479024.175    22479028.092
  -4562280.03449  -3535662.23146  23530083.572    23530084.302    23530086.586
  -3228866.82649  -2486200.33745  23733508.131    23733507.365    23733509.712
 08  9 25  0 16  0.0000000  0  9G14G12G22G31G30G16G32G29G20
 -20145540.38649 -15237999.72647  20772659.932    20772659.647    20772661.804
  -3772337.83849  -2913477.50945  25354590.422    25354590.442    25354593.019
  -5034716.58349  -3899607.20245  23790376.631    23790377.155    23790377.967
 -26138057.69249 -20336984.55048  20847254.972    20847255.295    20847256.656
 -24453673.04449 -19026981.33147  21275137.549    21275138.038    21275140.194
  -6661055.23749  -5136308.34945  23167098.020    23167097.002    23167101.199
 -11574476.02149  -8988509.05546  22471045.855    22471045.439    22471049.334
  -4615914.66349  -3577455.45546  23519877.218    23519877.148    23519879.754
  -3296867.10249  -2539187.54845  23720568.281    23720568.562    23720571.250
 08  9 25  0 16 30.0000000  0  9G14G12G22G31G30G16G32G29G20
 -20111157.55049 -15211207.91647  20779202.787    20779202.557    20779204.673
  -3666118.83649  -2830709.47945  25374803.318    25374804.608    25374806.016
  -4926452.42449  -3815245.58145  23810978.729    23810979.252    23810979.770
 -26157987.55749 -20352514.31248  20843462.422    20843462.981    20843463.994
 -24387269.31249 -18975238.16947  21287773.778    21287773.691    21287776.153
  -6768030.85649  -5219665.97845  23146741.094    23146740.375    23146743.949
 -11615920.17449  -9020803.19746  22463159.214    22463159.069    22463162.973
  -4669171.50749  -3618954.32046  23509742.646    23509742.394    23509745.894
  -3364418.50649  -2591825.01045  23707713.575    23707712.202    23707715.917
 08  9 25  0 17  0.0000000  0  9G14G12G22G31G30G16G32G29G20
 -20076364.51149 -15184096.46647  20785823.628    20785823.324    20785825.699
  -3559824.64249  -2747882.92745  25395030.515    25395031.126    25395032.438
  -4818117.32649  -3730828.67645  23831594.400    23831594.840    23831595.450
 -26177668.77649 -20367850.32648  20839717.241    20839717.614    20839719.041
 -24320404.14549 -18923135.45047  21300497.764    21300497.962    21300500.706
  -6874788.56049  -5302853.78645  23126425.658    23126425.479    23126429.289
 -11656876.04049  -9052716.87046  22455365.562    22455365.274    22455368.871
  -4722048.29449  -3660157.01446  23499680.434    23499681.089    23499683.238
  -3431519.51449  -2644111.50245  23694944.357    23694942.722    23694946.725
 08  9 25  0 17 30.0000000  0  9G14G12G22G31G30G16G32G29G20
 -20041160.70949 -15156664.94547  20792522.631    20792522.306    20792524.605
  -3453457.19149  -2664999.24145  25415271.608    25415272.213    25415275.415
  -4709713.74649  -3646358.39545  23852223.111    23852222.720    23852223.595
 -26197101.71249 -20382992.87348  20836019.247    20836019.614    20836020.785
 -24253079.44449 -18870674.65947  21313309.228    21313309.623    21313311.731
  -6981325.69049  -5385869.72745  23106152.188    23106152.044    23106154.918
 -11697341.99849  -9084248.79546  22447665.139    22447664.715    22447668.628
  -4774542.17449  -3701061.32345  23489691.268    23489691.015    23489694.296
  -3498167.48349  -2696044.98645  23682261.412    23682261.651    23682264.264
 08  9 25  0 18  0.0000000  0  8G14G22G31G30G16G32G29G20
 -20005546.40549 -15128913.54947  20799299.787    20799299.505    20799301.917
  -4601245.38849  -3561837.64745  23872864.109    23872864.090    23872864.800
 -26216287.84549 -20397943.10448  20832368.235    20832368.531    20832369.798
 -24185298.52349 -18817858.37147  21326207.453    21326207.804    21326209.768
  -7087640.66849  -5468712.55745  23085921.182    23085921.449    23085924.645
 -11737317.31749  -9115398.39046  22440058.050    22440057.871    22440061.894
  -4826651.12949  -3741665.67445  23479775.217    23479775.440    23479778.449
  -3564361.02149  -2747624.33945  23669665.217    23669664.522    23669668.347
 08  9 25  0 18 30.0000000  0  8G14G22G31G30G16G32G29G20
 -19969520.87349 -15100841.71447  20806155.208    20806155.368    20806157.316
  -4492713.41049  -3477267.32045  23893517.224    23893516.313    23893518.160
 -26235226.64449 -20412700.60448  20828764.278    20828764.816    20828765.878
 -24117063.39049 -18764688.14647  21339192.131    21339192.624    21339194.263
  -7193730.94349  -5551380.28645  23065732.899    23065732.616    23065735.144
 -11776799.94849  -9146164.09346  22432544.792    22432544.023    22432548.664
  -4878371.65549  -3781967.38146  23469933.180    23469934.003    23469936.419
  -3630097.06449  -2798847.23845  23657156.109    23657156.341    23657158.908
 08  9 25  0 19  0.0000000  0  8G14G22G31G30G16G32G29G20
 -19933085.58149 -15072450.58947  20813088.606    20813088.579    20813090.865
  -4384122.86049  -3392651.34945  23914181.257    23914180.317    23914183.008
 -26253920.20149 -20427267.00948  20825207.104    20825207.629    20825208.750
 -24048378.28649 -18711167.29447  21352262.491    21352263.306    21352265.082
  -7299596.32549  -5633872.76945  23045587.424    23045587.612    23045590.898
 -11815790.46949  -9176546.31946  22425125.166    22425125.269    22425128.290
  -4929703.36149  -3821966.08046  23460165.216    23460165.355    23460168.449
  -3695375.44149  -2849713.49845  23644734.389    23644734.231    23644736.086
 08  9 25  0 19 30.0000000  0  8G14G22G31G30G16G32G29G20
 -19896238.02449 -15043738.22047  20820100.491    20820100.394    20820102.218
  -4275473.99649  -3307989.95145  23934856.326    23934855.954    23934857.941
 -26272366.88249 -20441641.04248  20821696.850    20821697.209    20821698.560
 -23979243.47849 -18657296.02447  21365418.450    21365418.978    21365421.129
  -7405231.56849  -5716185.91745  23025485.775    23025485.298    23025488.737
 -11854285.11349  -9206542.14946  22417799.862    22417799.510    22417803.373
  -4980641.36249  -3861658.01046  23450471.948    23450471.746    23450475.079
  -3760192.02149  -2900219.91345  23632400.325    23632400.230    23632402.800
 08  9 25  0 20  0.0000000  0  8G14G22G31G30G16G32G29G20
 -19858978.97849 -15014705.20947  20827190.617    20827190.516    20827192.707
  -4166770.24749  -3223285.79045  23955541.688    23955540.914    23955544.594
 -26290567.72749 -20455823.52448  20818233.311    20818233.737    20818234.702
 -23909662.36549 -18603076.99247  21378659.273    21378659.672    21378661.754
  -7510635.22749  -5798318.61545  23005428.196    23005428.403    23005430.468
 -11892283.44849  -9236151.24746  22410569.049    22410568.906    22410572.912
  -5031183.80749  -3901041.71646  23440853.924    23440854.734    23440856.746
  -3824545.43149  -2950365.43545  23620154.393    23620153.318    23620156.559
 08  9 25  0 20 30.0000000  0  8G14G22G31G30G16G32G29G20
 -19821308.56049 -14985351.63947  20834359.074    20834359.303    20834361.263
  -4058014.86949  -3138541.38945  23976236.990    23976236.667    23976239.676
 -26308523.49349 -20469815.03048  20814816.425    20814816.882    20814817.911
 -23839637.97349 -18548512.54547  21391984.466    21391985.177    21391987.053
  -7615805.71849  -5880269.62645  22985414.942    22985414.978    22985417.173
 -11929784.62049  -9265372.95046  22403432.800    22403433.126    22403436.507
  -5081328.65049  -3940115.58846  23431311.770    23431312.310    23431315.080
  -3888433.88849  -3000148.65645  23607996.796    23607996.854    23607998.812
 08  9 25  0 21  0.0000000  0  8G14G22G31G30G16G32G29G20
 -19783227.69849 -14955678.24247  20841605.696    20841605.527    20841607.863
  -3949211.46749  -3053759.57845  23996941.457    23996941.143    23996943.951
 -26326235.73549 -20483616.77148  20811445.944    20811446.196    20811447.437
 -23769174.15649 -18493605.69447  21405393.275    21405393.724    21405395.897
  -7720741.91849  -5962038.07545  22965446.235    22965446.432    22965448.131
 -11966788.48649  -9294207.13846  22396391.226    22396390.881    22396394.695
  -5131074.57049  -3978878.60746  23421845.553    23421845.614    23421848.798
  -3951856.76249  -3049569.07445  23595927.892    23595926.910    23595930.258
 08  9 25  0 21 30.0000000  0  8G14G22G31G30G16G32G29G20
 -19744733.72049 -14925682.94447  20848930.928    20848930.895    20848932.936
  -3840360.36649  -2968940.59545  24017655.238    24017656.173    24017656.300
 -26343702.28849 -20497227.07348  20808122.183    20808122.487    20808123.900
 -23698270.62249 -18438356.20347  21418885.763    21418885.944    21418888.616
  -7825438.91949  -6043620.12845  22945523.005    22945522.825    22945523.477
 -12003291.27549  -9322650.87046  22389445.082    22389445.320    22389448.468
  -5180416.58649  -4017326.90646  23412455.974    23412456.234    23412459.013
  -4014809.47549  -3098623.13945  23583948.394    23583948.102    23583950.293
 08  9 25  0 22  0.0000000  0  8G14G22G31G30G16G32G29G20
 -19705827.23449 -14895366.20847  20856334.607    20856334.510    20856336.513
  -3731464.86749  -2884086.99645  24038377.650    24038378.427    24038378.875
 -26360924.64249 -20510647.08848  20804844.871    20804845.245    20804846.437
 -23626930.59849 -18382766.59447  21432461.337    21432462.075    21432464.054
  -7929895.50649  -6125014.84446  22925645.646    22925645.986    22925647.860
 -12039292.65249  -9350703.89546  22382594.211    22382593.863    22382597.366
  -5229352.89549  -4055459.06946  23403143.678    23403144.051    23403146.742
  -4077290.55849  -3147309.70245  23572058.677    23572059.023    23572061.106
 08  9 25  0 22 30.0000000  0  8G14G22G31G30G16G32G29G20
 -19666508.83149 -14864728.49747  20863816.646    20863816.341    20863818.548
  -3622528.78749  -2799201.77345  24059107.768    24059108.476    24059109.416
 -26377903.59449 -20523877.44048  20801613.853    20801613.962    20801615.419
 -23555157.75749 -18326839.71947  21446119.356    21446119.930    21446121.671
  -8034109.81949  -6206220.78146  22905814.421    22905814.295    22905817.015
 -12074792.05249  -9378365.78046  22375838.863    22375838.339    22375842.313
  -5277881.83449  -4093273.79946  23393909.056    23393908.284    23393912.304
  -4139298.85749  -3195627.85745  23560259.001    23560257.753    23560261.232
 08  9 25  0 23  0.0000000  0  8G14G22G31G30G16G32G29G20
 -19626777.97549 -14833769.39947  20871377.199    20871377.196    20871379.310
  -3513554.22949  -2714286.57645  24079845.079    24079846.319    24079847.077
 -26394639.11749 -20536918.10948  20798429.104    20798429.687    20798430.723
 -23482954.19649 -18270577.21647  21459859.295    21459859.508    21459861.855
  -8138079.78849  -6287236.30746  22886029.788    22886030.331    22886032.062
 -12109787.80749  -9405635.20646  22369179.369    22369178.810    22369182.344
  -5326000.72649  -4130769.00546  23384752.342    23384752.353    23384755.235
  -4200832.50149  -3243576.13645  23548549.346    23548548.939    23548551.780
 08  9 25  0 23 30.0000000  0  8G14G22G31G30G16G32G29G20
 -19586633.72549 -14802488.17447  20879016.425    20879016.208    20879018.428
  -3404542.11149  -2629342.10345  24100589.514    24100589.289    24100590.394
 -26411130.74249 -20549768.72448  20795290.932    20795291.309    20795292.377
 -23410321.59149 -18213980.39347  21473680.761    21473681.320    21473683.443
  -8241801.74049  -6368058.57446  22866292.271    22866292.565    22866294.304
 -12144277.82549  -9432510.55446  22362616.043    22362615.394    22362619.088
  -5373706.25249  -4167942.10046  23375674.265    23375674.038    23375676.733
  -4261887.72149  -3291151.63545  23536930.864    23536930.482    23536933.378
 08  9 25  0 24  0.0000000  0  8G14G22G31G30G16G32G29G20
 -19546077.54649 -14770885.96647  20886734.081    20886733.825    20886735.735
  -3295497.38849  -2544372.23345  24121340.147    24121339.784    24121342.626
 -26427380.34649 -20562430.74748  20792198.721    20792199.160    20792200.249
 -23337264.13849 -18157052.51747  21487583.110    21487583.685    21487585.776
  -8345275.60649  -6448687.54246  22846601.830    22846601.597    22846603.152
 -12178262.76749  -9458992.33446  22356148.888    22356149.230    22356152.031
  -5420997.39249  -4204792.29246  23366675.015    23366675.557    23366677.870
  -4322464.69349  -3338354.46745  23525403.573    23525403.042    23525406.604
 08  9 25  0 24 30.0000000  0  8G14G22G31G30G16G32G29G20
 -19505107.33049 -14738961.13747  20894530.445    20894530.258    20894532.435
  -3186420.62149  -2459377.40945  24142096.861    24142097.024    24142096.935
 -26443386.65949 -20574903.19948  20789152.819    20789153.269    20789154.599
 -23263782.31249 -18099793.96547  21501566.233    21501566.755    21501569.026
  -8448496.66649  -6529119.51346  22826959.393    22826959.135    22826961.873
 -12211739.28149  -9485077.93146  22349778.498    22349777.981    22349781.851
  -5467869.56849  -4241316.02246  23357755.474    23357755.292    23357757.880
  -4382559.20949  -3385181.37345  23513967.987    23513968.029    23513970.014
 08  9 25  0 25  0.0000000  0  8G14G22G31G30G16G32G29G20
 -19463725.64949 -14706715.68147  20902405.196    20902405.116    20902406.951
  -3077317.00149  -2374361.66545  24162858.665    24162859.391    24162859.964
 -26459152.17149 -20587188.01448  20786152.667    20786153.066    20786154.634
 -23189881.47549 -18042208.90847  21515629.097    21515629.630    21515631.780
  -8551465.13649  -6609354.64846  22807365.099    22807364.790    22807368.349
 -12244708.68849  -9510768.38846  22343504.600    22343504.374    22343508.432
  -5514322.97649  -4277513.44246  23348915.587    23348915.402    23348918.428
  -4442171.82349  -3431632.75245  23502624.278    23502624.182    23502627.329
 08  9 25  0 25 30.0000000  0  8G14G22G31G30G16G32G29G20
 -19421930.99249 -14674148.42547  20910358.504    20910357.830    20910360.191
  -2968187.75749  -2289325.94345  24183625.504    24183626.254    24183626.494
 -26474676.16549 -20599284.63148  20783198.589    20783199.241    20783200.308
 -23115562.77049 -17984298.24447  21529771.586    21529772.069    21529774.132
  -8654177.96849  -6689390.60746  22787819.471    22787818.442    22787820.476
 -12277168.61549  -9536061.85046  22337327.635    22337326.970    22337330.672
  -5560354.02349  -4313381.75446  23340156.019    23340156.126    23340158.821
  -4501299.64349  -3477706.37645  23491372.754    23491372.311    23491375.537
 08  9 25  0 26  0.0000000  0  8G14G22G31G30G16G32G29G20
 -19379722.94149 -14641259.05147  20918390.452    20918390.110    20918392.118
  -2859035.31349  -2204272.13845  24204396.582    24204394.346    24204396.233
 -26489959.01449 -20611193.34348  20780290.408    20780290.954    20780292.046
 -23040828.85949 -17926064.03647  21543992.984    21543993.054    21543995.534
  -8756632.61949  -6769225.38746  22768322.902    22768321.949    22768324.649
 -12309118.01349  -9560957.48946  22331247.863    22331247.359    22331251.540
  -5605960.30249  -4348919.08246  23331477.369    23331477.524    23331480.334
  -4559940.69549  -3523400.70445  23480213.770    23480213.017    23480216.002
 08  9 25  0 26 30.0000000  0  8G14G22G31G30G16G32G29G20
 -19337101.90149 -14608047.86747  20926500.867    20926500.695    20926502.684
  -2749862.68749  -2119202.61945  24225171.609    24225171.373    24225171.760
 -26505001.13749 -20622914.47348  20777428.019    20777428.386    20777429.710
 -22965682.95049 -17867508.79447  21558292.808    21558293.064    21558295.514
  -8858827.38649  -6848857.64146  22748875.681    22748874.772    22748878.414
 -12340556.01549  -9585454.64046  22325265.405    22325265.151    22325268.717
  -5651139.86449  -4384123.89746  23322879.816    23322879.357    23322883.048
  -4618093.01749  -3568714.20145  23469147.744    23469147.138    23469150.472
 08  9 25  0 27  0.0000000  0  8G14G22G31G30G16G32G29G20
 -19294067.05249 -14574514.23047  20934690.171    20934690.006    20934691.862
  -2640671.86649  -2034118.90145  24245949.715    24245948.969    24245949.002
 -26519801.98249 -20634447.60348  20774611.484    20774611.835    20774613.131
 -22890126.39949 -17808633.57447  21572670.917    21572671.410    21572673.235
  -8960759.14449  -6928284.96146  22729478.535    22729478.499    22729481.128
 -12371480.75149  -9609551.84846  22319380.547    22319380.225    22319384.236
  -5695889.47749  -4418993.70146  23314364.150    23314364.441    23314367.556
  -4675754.19149  -3613644.99445  23458174.937    23458174.254    23458176.942
 08  9 25  0 27 30.0000000  0  8G14G22G31G30G16G32G29G20
 -19250619.40549 -14540658.93647  20942957.899    20942957.502    20942959.748
  -2531466.12049  -1949023.56745  24266731.038    24266731.991    24266731.380
 -26534363.11049 -20645793.93648  20771840.575    20771841.094    20771842.310
 -22814162.93649 -17749441.26747  21587126.321    21587126.263    21587129.118
  -9062426.49449  -7007506.25346  22710131.835    22710131.483    22710133.972
 -12401892.07749  -9633248.99746  22313593.523    22313593.780    22313597.635
  -5740207.52249  -4453527.22546  23305930.709    23305930.980    23305934.199
  -4732923.32949  -3658192.37045  23447295.838    23447295.385    23447298.752
 08  9 25  0 28  0.0000000  0  8G14G22G31G30G16G32G29G20
 -19206759.15249 -14506482.12547  20951304.228    20951303.544    20951306.391
  -2422248.21049  -1863918.74945  24287514.601    24287515.013    24287514.668
 -26548685.11349 -20656953.93448  20769115.218    20769115.351    20769116.684
 -22737795.21849 -17689933.96447  21601658.495    21601658.553    21601661.113
  -9163827.58249  -7086520.06746  22690835.801    22690834.742    22690838.452
 -12431789.18149  -9656545.45946  22307904.367    22307904.049    22307908.017
  -5784091.93949  -4487722.84546  23297579.685    23297580.141    23297583.159
  -4789598.64849  -3702354.96745  23436510.783    23436510.322    23436513.573
 08  9 25  0 28 30.0000000  0  8G14G22G31G30G16G32G29G20
 -19162487.30149 -14471984.59547  20959728.826    20959728.852    20959731.044
  -2313022.05249  -1778807.49045  24308299.590    24308298.995    24308298.053
 -26562769.31849 -20667928.64248  20766434.990    20766435.356    20766436.595
 -22661027.04649 -17630114.62347  21616267.013    21616267.080    21616269.407
  -9264961.53249  -7165325.70846  22671590.586    22671590.734    22671592.812
 -12461172.17349  -9679441.30546  22302313.009    22302312.680    22302316.550
  -5827541.54549  -4521579.65846  23289311.655    23289312.195    23289314.470
  -4845779.62249  -3746132.33845  23425819.957    23425819.423    23425822.201
 08  9 25  0 29  0.0000000  0  8G14G22G31G30G16G32G29G20
 -19117802.03149 -14437164.92147  20968232.145    20968231.925    20968234.193
  -2203788.29649  -1693690.32545  24329085.815    24329085.135    24329087.129
 -26576614.52749 -20678717.11948  20763800.308    20763800.870    20763802.161
 -22583859.26149 -17569983.90547  21630951.564    21630952.024    21630954.142
  -9365823.95549  -7243919.78546  22652397.102    22652397.571    22652399.663
 -12490038.21149  -9701934.33546  22296819.977    22296820.003    22296823.127
  -5870552.06149  -4555094.33846  23281127.117    23281126.871    23281129.711
  -4901462.44049  -3789521.54745  23415223.691    23415223.408    23415227.133
 08  9 25  0 29 30.0000000  0  8G14G22G31G30G16G32G29G20
 -19072703.40449 -14402023.14547  20976814.169    20976814.054    20976816.148
  -2094549.72549  -1608569.41545  24349872.819    24349871.725    24349873.221
 -26590220.90249 -20689319.48748  20761211.180    20761211.802    20761212.812
 -22506294.70449 -17509544.00347  21645711.572    21645711.826    21645714.110
  -9466413.01949  -7322300.84046  22633255.638    22633257.082    22633258.708
 -12518386.41849  -9724023.86046  22291425.546    22291425.657    22291428.541
  -5913121.70849  -4588265.49346  23273026.392    23273026.689    23273028.715
  -4956645.22049  -3832521.11045  23404722.824    23404722.758    23404725.678
 08  9 25  0 30  0.0000000  0  8G14G22G31G30G16G32G29G20
 -19027192.00049 -14366559.72247  20985474.779    20985474.548    20985476.799
  -1985309.43249  -1523447.17145  24370660.400    24370660.293    24370662.101
 -26603589.21349 -20699736.35548  20758667.318    20758667.703    20758669.101
 -22428336.55349 -17448797.41847  21660546.571    21660546.965    21660548.869
  -9566727.05149  -7400467.59746  22614166.697    22614166.988    22614169.214
 -12546216.30249  -9745709.49046  22286129.840    22286129.524    22286133.178
  -5955248.72549  -4621091.72946  23265009.948    23265010.328    23265013.275
  -5011326.97049  -3875130.26045  23394317.193    23394315.492    23394319.331
 08  9 25  0 30 30.0000000  0  8G14G22G31G30G16G32G29G20
 -18981267.46849 -14330774.38247  20994213.948    20994213.558    20994215.972
  -1876069.23049  -1438324.98845  24391448.280    24391448.292    24391451.358
 -26616719.41949 -20709967.69148  20756168.722    20756169.023    20756170.294
 -22349986.88049 -17387745.75146  21675456.006    21675456.184    21675458.310
  -9666763.40249  -7478417.97946  22595130.632    22595130.796    22595131.892
 -12573526.55349  -9766990.21846  22280932.972    22280932.711    22280935.847
  -5996930.40949  -4653570.94746  23257078.158    23257078.600    23257080.696
  -5065505.59849  -3917347.36245  23384007.323    23384007.219    23384010.088
 08  9 25  0 31  0.0000000  0  8G14G22G31G30G16G32G29G20
 -18934930.68049 -14294667.80847  21003031.544    21003031.474    21003033.228
  -1766832.62449  -1353205.62345  24412235.417    24412234.851    24412238.034
 -26629612.53649 -20720014.27548  20753715.192    20753715.612    20753716.899
 -22271248.98449 -17326391.56646  21690439.296    21690439.391    21690442.029
  -9766520.83949  -7556151.03046  22576147.540    22576146.979    22576149.643
 -12600316.96049  -9787865.87346  22275834.928    22275834.141    22275837.324
  -6038164.86549  -4685701.68546  23249231.297    23249232.102    23249234.669
  -5119179.95049  -3959171.51845  23373793.499    23373792.600    23373796.657
 08  9 25  0 31 30.0000000  0  8G14G22G31G30G16G32G29G20
 -18888180.27749 -14258238.93947  21011927.851    21011927.845    21011930.076
  -1657601.14249  -1268090.25145  24433021.561    24433022.221    24433023.418
 -26642267.87549 -20729875.58448  20751306.977    20751307.349    20751308.554
 -22192124.46449 -17264736.12946  21705496.136    21705496.288    21705498.766
  -9865995.86349  -7633664.02646  22557217.952    22557217.603    22557219.037
 -12626585.34749  -9808334.76346  22270836.058    22270835.521    22270838.494
  -6078948.75249  -4717481.34346  23241470.241    23241471.284    23241473.096
  -5172347.11149  -4000600.48945  23363675.909    23363676.973    23363679.085
 08  9 25  0 32  0.0000000  0  8G14G22G31G30G16G32G29G20
 -18841018.36349 -14221489.40647  21020902.476    21020901.922    21020904.372
  -1548378.66049  -1182981.88245  24453806.085    24453805.333    24453807.181
 -26654687.19849 -20739552.97948  20748943.676    20748944.145    20748945.232
 -22112617.36249 -17202782.57046  21720625.790    21720625.974    21720628.259
  -9965187.67349  -7710956.33246  22538342.503    22538342.400    22538343.578
 -12652332.41149  -9828397.41746  22265936.653    22265936.523    22265939.974
  -6119281.59949  -4748909.52346  23233795.144    23233795.818    23233798.043
  -5225006.78749  -4041633.98945  23353655.269    23353654.431    23353658.497
 08  9 25  0 32 30.0000000  0  8G14G22G31G30G16G32G29G20
 -18793444.04049 -14184418.51247  21029955.520    21029954.905    21029957.696
  -1439167.64049  -1097882.44644  24474587.967    24474587.366    24474589.118
 -26666870.83049 -20749046.71948  20746625.253    20746625.670    20746626.883
 -22032730.34849 -17140532.96846  21735827.804    21735828.239    21735830.523
 -10064094.18449  -7788026.31846  22519521.293    22519520.980    22519522.679
 -12677557.09949  -9848053.04146  22261136.629    22261136.486    22261139.951
  -6159160.72349  -4779984.15846  23226206.496    23226206.662    23226209.318
  -5277157.06549  -4082270.57045  23343731.144    23343730.192    23343734.976
 08  9 25  0 33  0.0000000  0  8G14G22G31G30G16G32G29G20
 -18745457.08149 -14147026.08747  21039087.156    21039086.943    21039088.957
  -1329969.95749  -1012793.38144  24495367.457    24495368.409    24495369.886
 -26678818.08149 -20758356.26448  20744351.774    20744352.134    20744353.373
 -21952465.46949 -17077988.92846  21751101.727    21751101.796    21751104.593
 -10162712.54149  -7864871.78446  22500754.887    22500754.212    22500756.774
 -12702257.98449  -9867300.49946  22256436.235    22256435.890    22256438.667
  -6198583.85249  -4810703.46946  23218704.614    23218705.165    23218707.069
  -5328795.79149  -4122508.53545  23333904.641    23333904.434    23333907.734
 08  9 25  0 33 30.0000000  0  8G14G22G31G30G16G32G29G20
 -18697058.17349 -14109312.66547  21048297.118    21048296.717    21048298.942
  -1220788.96149   -927717.31244  24516143.852    24516142.618    24516145.413
 -26690530.19749 -20767482.58648  20742123.012    20742123.477    20742124.554
 -21871825.85749 -17015152.89746  21766446.925    21766447.452    21766449.618
 -10261041.28049  -7941491.56146  22482043.422    22482042.636    22482045.109
 -12726434.89649  -9886139.66146  22251835.525    22251835.515    22251837.984
  -6237549.41549  -4841066.23446  23211289.833    23211289.619    23211292.869
  -5379921.85249  -4162347.01545  23324175.803    23324174.910    23324179.190
 08  9 25  0 34  0.0000000  0  8G14G22G31G30G16G32G29G20
 -18648246.76749 -14071277.81647  21057585.558    21057585.157    21057587.659
  -1111626.03749   -842655.32944  24536916.967    24536917.785    24536919.574
 -26702006.48249 -20776425.14848  20739939.183    20739939.429    20739940.756
 -21790812.91349 -16952025.94946  21781863.209    21781863.440    21781865.983
 -10359077.50749  -8017883.41846  22463387.532    22463386.821    22463389.782
 -12750086.09249  -9904569.18046  22247334.899    22247334.431    22247338.043
  -6276054.13349  -4871069.90046  23203962.647    23203962.871    23203965.247
  -5430532.64849  -4201784.02245  23314544.791    23314544.467    23314547.452
 08  9 25  0 34 30.0000000  0  8G14G22G31G30G16G32G29G20
 -18599020.09349 -14032919.37947  21066953.045    21066952.652    21066955.391
  -1002480.78449   -757607.12545  24557686.751    24557687.557    24557689.317
 -26713244.09849 -20785181.73148  20737800.692    20737801.039    20737802.191
 -21709426.71949 -16888608.15546  21797350.559    21797350.988    21797352.846
 -10456816.02349  -8094043.29146  22444788.509    22444788.296    22444789.643
 -12773207.59049  -9922585.94246  22242935.078    22242934.737    22242938.038
  -6314092.70049  -4900710.31846  23196724.038    23196724.022    23196726.620
  -5480623.45649  -4240815.81845  23305013.092    23305013.735    23305015.156
 08  9 25  0 35  0.0000000  0  8G14G22G31G30G16G32G29G20
 -18549384.38149 -13994242.21447  21076398.404    21076398.213    21076400.826
   -893362.02549   -672579.58445  24578451.598    24578451.602    24578453.365
 -26724250.03449 -20793757.78448  20735706.333    20735706.689    20735707.988
 -21627676.50049 -16824906.70446  21812907.207    21812907.728    21812909.447
 -10554261.08149  -8169974.47946  22426245.277    22426245.293    22426246.533
 -12795805.15649  -9940194.44646  22238634.900    22238634.334    22238637.938
  -6351669.61549  -4929991.00346  23189573.326    23189574.392    23189576.434
  -5530199.25349  -4279446.32145  23295579.418    23295578.696    23295581.664
 08  9 25  0 35 30.0000000  0  8G14G22G31G30G16G32G29G20
 -18499337.97949 -13955245.03047  21085921.922    21085921.540    21085924.191
   -784270.36949   -587573.15045  24599210.967    24599210.431    24599213.321
 -26735022.35949 -20802151.80348  20733656.436    20733656.768    20733658.002
 -21545562.53049 -16760921.81546  21828532.941    21828533.631    21828535.519
 -10651408.60249  -8245673.83346  22407758.615    22407758.382    22407760.429
 -12817876.16049  -9957392.64646  22234434.983    22234435.081    22234437.909
  -6388780.66049  -4958908.67646  23182511.439    23182511.401    23182513.829
  -5579256.66449  -4317672.87945  23286244.109    23286244.149    23286246.075
 08  9 25  0 36  0.0000000  0  8G14G22G31G30G16G32G29G20
 -18448880.98049 -13915927.90347  21095523.543    21095523.293    21095526.122
   -675208.36349   -502589.85145  24619964.591    24619965.543    24619966.604
 -26745561.49949 -20810364.12348  20731650.870    20731651.097    20731652.387
 -21463087.58149 -16696655.64146  21844227.384    21844227.316    21844230.048
 -10748256.46549  -8321139.69246  22389328.974    22389328.400    22389330.861
 -12839419.64449  -9974179.79646  22230335.453    22230335.149    22230338.046
  -6425423.87249  -4987461.82346  23175538.478    23175538.499    23175540.727
  -5627793.61849  -4355493.87845  23277007.896    23277007.243    23277010.672
 08  9 25  0 36 30.0000000  0  8G14G22G31G30G16G32G29G20
 -18398014.59949 -13876291.77947  21105203.032    21105202.782    21105205.558
   -566179.34549   -417632.25245  24640712.280    24640711.630    24640714.232
 -26755868.65749 -20818395.67648  20729689.492    20729689.884    20729691.334
 -21380255.39649 -16632111.10046  21859989.789    21859989.984    21859992.382
 -10844803.68849  -8396371.28046  22370956.566    22370955.200    22370958.318
 -12860436.03249  -9990556.21446  22226336.185    22226335.948    22226339.624
  -6461598.21549  -5015649.59946  23168654.657    23168654.694    23168657.217
  -5675809.78449  -4392909.08745  23267870.765    23267870.438    23267873.912
 08  9 25  0 37  0.0000000  0  8G14G22G31G30G16G32G29G20
 -18346736.64249 -13836334.94047  21114961.026    21114961.566    21114963.584
   -457183.41749   -332700.43645  24661453.668    24661452.472    24661455.065
 -26765942.07549 -20826245.09348  20727772.566    20727772.981    20727774.225
 -21297066.44649 -16567288.55346  21875820.060    21875820.315    21875823.043
 -10941045.78649  -8471365.09646  22352642.304    22352641.748    22352644.582
 -12880922.31349 -10006519.56946  22222437.785    22222437.776    22222441.090
  -6497299.15049  -5043468.49646  23161860.910    23161861.307    23161863.936
  -5723301.24949  -4429915.44145  23258833.313    23258832.775    23258836.244
 08  9 25  0 37 30.0000000  0  8G14G22G31G30G16G32G29G20
 -18295048.41849 -13796058.42047  21124797.020    21124797.007    21124799.464
   -348223.81349   -247796.93945  24682187.765    24682188.576    24682189.777
 -26775782.47349 -20833912.94248  20725899.996    20725900.508    20725901.718
 -21213524.16649 -16502190.69946  21891717.618    21891718.369    21891720.644
 -11036981.40849  -8546120.12046  22334386.441    22334386.216    22334388.906
 -12900878.57849 -10022069.92146  22218640.302    22218639.676    22218643.013
  -6532525.63449  -5070917.68646  23155157.566    23155157.348    23155161.146
  -5770267.34449  -4466512.38545  23249895.990    23249895.362    23249899.004
 08  9 25  0 38  0.0000000  0  8G14G22G31G30G16G32G29G20
 -18242949.98749 -13755462.25147  21134711.025    21134710.784    21134713.492
   -239303.68049   -162924.19845  24702914.665    24702916.377    24702917.378
 -26785390.57749 -20841399.77648  20724071.640    20724072.133    20724073.187
 -21129631.45049 -16436819.77746  21907681.967    21907682.797    21907684.266
 -11132609.33649  -8620635.37946  22316189.092    22316189.354    22316191.424
 -12920304.57349 -10037207.07546  22214943.432    22214943.355    22214946.716
  -6567276.04649  -5097995.91446  23148544.829    23148545.156    23148547.114
  -5816707.06149  -4502699.19545  23241058.779    23241058.470    23241061.297
 08  9 25  0 38 30.0000000  0  8G14G22G31G30G16G32G29G20
 -18190441.13549 -13714546.28347  21144703.118    21144703.197    21144705.091
   -130424.75349    -78083.52645  24723634.029    24723634.494    24723636.357
 -26794766.34449 -20848705.57248  20722287.495    20722287.889    20722289.177
 -21045390.14949 -16371177.21846  21923712.640    21923713.239    21923715.333
 -11227926.22049  -8694908.25646  22298050.900    22298050.831    22298053.184
 -12939199.13449 -10051930.12746  22211347.929    22211348.124    22211351.417
  -6601547.61749  -5124701.01746  23142023.152    23142023.560    23142026.128
  -5862618.05949  -4538474.00445  23232322.310    23232322.938    23232324.317
 08  9 25  0 39  0.0000000  0  8G14G22G31G30G16G32G29G20
 -18137523.30549 -13673311.62047  21154773.125    21154772.955    21154775.531
    -21590.61649      6722.19645  24744344.554    24744344.996    24744347.505
 -26803910.68249 -20855831.03448  20720547.395    20720547.893    20720549.101
 -20960803.89649 -16305265.87946  21939809.020    21939809.366    21939811.413
 -11322931.42149  -8768938.26446  22279972.015    22279971.816    22279974.366
 -12957562.40749 -10066239.18546  22207853.582    22207853.443    22207856.823
  -6635339.70549  -5151032.49846  23135592.760    23135593.042    23135595.799
  -5907999.96549  -4573836.53245  23223686.680    23223686.396    23223688.663
 08  9 25  0 39 30.0000000  0  8G14G22G31G30G16G32G29G20
 -18084196.91949 -13631758.60547  21164920.793    21164920.930    21164923.270
     87196.16949     91491.07845  24765046.084    24765045.816    24765047.949
 -26812824.15349 -20862776.59948  20718851.226    20718851.787    20718852.916
 -20875875.32649 -16239087.78846  21955970.333    21955970.758    21955972.710
 -11417623.02449  -8842723.92446  22261952.697    22261952.311    22261954.775
 -12975393.94749 -10080133.90746  22204460.332    22204459.672    22204463.528
  -6668650.18449  -5176988.69746  23129253.950    23129253.751    23129257.529
  -5952851.29049  -4608785.62945  23215151.824    23215151.035    23215153.860
 08  9 25  0 40  0.0000000  0  8G14G22G31G30G16G32G29G20
 -18030460.71249 -13589886.25947  21175146.567    21175146.401    21175148.417
    195934.76249    176222.39245  24785738.262    24785738.390    24785741.192
 -26821505.62449 -20869541.38448  20717199.240    20717199.481    20717200.933
 -20790606.09449 -16172644.26546  21972196.516    21972196.275    21972198.962
 -11511997.37449  -8916262.36346  22243993.829    22243993.873    22243995.747
 -12992692.05449 -10093612.96046  22201168.622    22201167.951    22201172.053
  -6701475.82649  -5202567.10446  23123007.355    23123007.845    23123010.401
  -5997169.39249  -4643319.22745  23206718.293    23206717.604    23206720.648
 08  9 25  0 40 30.0000000  0  8G14G22G31G30G16G32G29G20
 -17976315.16549 -13547694.94447  21185450.160    21185449.938    21185451.749
    304622.34049    260913.95745  24806420.985    24806421.342    24806424.700
 -26829955.73749 -20876125.89148  20715591.191    20715591.724    20715592.790
 -20704998.99049 -16105937.45946  21988487.088    21988487.717    21988489.937
 -11606053.25049  -8989552.64446  22226095.655    22226095.694    22226097.931
 -13009456.25749 -10106675.99046  22197978.382    22197977.830    22197981.692
  -6733814.92649  -5227766.40246  23116853.432    23116854.005    23116856.216
  -6040953.19149  -4677436.48345  23198386.494    23198386.072    23198388.611
 08  9 25  0 41  0.0000000  0  8G14G22G31G30G16G32G29G20
 -17921762.03249 -13505186.02247  21195831.192    21195830.792    21195833.441
    413255.07549    345562.78745  24827093.262    24827093.291    24827093.390
 -26838176.25549 -20882531.49348  20714026.892    20714027.347    20714028.683
 -20619058.18149 -16038970.61746  22004841.100    22004841.455    22004843.337
 -11699789.60049  -9062593.93746  22208258.321    22208258.642    22208260.772
 -13025687.59049 -10119323.79246  22194889.654    22194889.458    22194893.289
  -6765666.97949  -5252586.17046  23110792.160    23110792.591    23110794.878
  -6084202.84949  -4711137.52445  23190156.250    23190155.240    23190158.452
 08  9 25  0 41 30.0000000  0  8G14G22G31G30G16G32G29G20
 -17866801.08949 -13462359.33047  21206289.909    21206289.831    21206292.021
    521830.88749    430167.26045  24847754.763    24847755.527    24847753.363
 -26846166.77249 -20888757.87448  20712506.380    20712506.590    20712507.888
 -20532785.82649 -15971745.44146  22021258.285    22021258.690    22021261.023
 -11793204.03549  -9135384.39146  22190482.156    22190481.969    22190484.353
 -13041384.85949 -10131555.44846  22191902.576    22191902.266    22191905.903
  -6797029.57449  -5277024.54846  23104824.120    23104824.623    23104826.737
  -6126915.99449  -4744420.49245  23182028.204    23182026.937    23182031.005
 08  9 25  0 42  0.0000000  0  8G14G22G31G30G16G32G29G20
 -17811432.90249 -13419215.30647  21216826.195    21216825.917    21216828.322
