     2              OBSERVATION DATA                        RINEX VERSION / TYPE
CRN, Geodetics, Inc.                    20010304 00:37:54UTCPGM / RUN BY / DATE 
HKSL Siu Lang Shui                                          MARKER NAME         
                                                            REC # / TYPE / VERS 
                                                            ANT # / TYPE        
 -2393382.4830  5393861.1466  2412592.3620                  APPROX POSITION XYZ 
        0.1183        0.0000        0.0000                  ANTENNA: DELTA H/E/N
     1     1                                                WAVELENGTH FACT L1/2
     4    L1    L2    P2    C1                              # / TYPES OF OBSERV 
  2001    03    04    00    01    0.000000                  TIME OF FIRST OBS   
                                                            END OF HEADER       
 01 03 04 00 01  0.0000000  0 10 28 03 25 29 20 22 13 01 31 19
 111610433.02848  86969139.84148  21238749.729    21238756.916  
 107972144.42048  84134119.40949  20546413.287    20546419.026  
 115818777.83648  90248389.60048  22039571.083    22039575.939  
 127860914.68846  99631886.98446  24331127.452    24331125.537  
 125394404.47447  97709887.29547  23861768.746    23861773.146  
 109402736.12648  85248860.61448  20818636.889    20818643.346  
 126818303.05847  98819442.28547  24132716.740    24132722.273  
 114845381.77448  89489876.17448  21854347.712    21854353.605  
 120111541.41848  93593370.20547  22856463.995    22856468.146  
 129736551.83447 101093402.36746  24688041.582    24688046.217  
 01 03 04 00 01  5.0000000  0 10 28 03 25 29 20 22 13 01 31 19
 111609912.09448  86968733.91448  21238650.613    21238657.786  
 107964620.28648  84128256.44049  20544981.506    20544987.243  
 115823397.84648  90251989.58648  22040450.267    22040455.110  
 127879099.73046  99646057.08946  24334587.998    24334586.119  
 125402331.69947  97716064.31247  23863277.283    23863281.682  
 109410799.74648  85255143.95048  20820171.359    20820177.801  
 126802287.62447  98806962.73447  24129669.091    24129674.637  
 114833843.75048  89480885.50148  21852152.114    21852157.992  
 120093645.66848  93579425.47947  22853058.535    22853062.686  
 129723695.93546 101083384.75546  24685595.209    24685599.857  
 01 03 04 00 01 10.0000000  0 10 28 03 25 29 20 22 13 01 31 19
 111609397.47148  86968332.89648  21238552.696    21238559.868  
 107957110.42548  84122404.59749  20543552.426    20543558.164  
 115828024.39948  90255594.70048  22041330.657    22041335.514  
 127897287.04746  99660228.94946  24338048.926    24338047.110  
 125410264.29547  97722245.53547  23864786.831    23864791.217  
 109418867.61949  85261430.59148  20821706.636    20821713.078  
 126786277.68847  98794487.40047  24126622.563    24126628.083  
 114822316.61048  89471903.31448  21849958.572    21849964.450  
 120075755.01447  93565484.72947  22849654.031    22849658.196  
 129710836.70747 101073364.52746  24683148.213    24683152.863  
 01 03 04 00 01 15.0000000  0 10 28 03 25 29 20 22 13 01 31 19
 111608889.93248  86967937.43048  21238456.088    21238463.275  
 107949615.64548  84116564.50049  20542126.214    20542131.954  
 115832658.33748  90259205.53948  22042212.491    22042217.346  
 127915477.43546  99674403.20946  24341510.394    24341508.625  
 125418203.07247  97728431.56347  23866297.568    23866301.940  
 109426940.55448  85267721.19448  20823242.850    20823249.307  
 126770274.08347  98782017.07346  24123577.167    24123582.686  
 114810801.15948  89462930.24648  21847767.242    21847773.133  
 120057870.27848  93551548.58347  22846250.667    22846254.832  
 129697974.89446 101063342.42146  24680700.575    24680705.270  
 01 03 04 00 01 20.0000000  0 10 28 03 25 29 20 22 13 01 31 19
 111608389.07548  86967547.14548  21238360.792    21238367.965  
 107942135.53248  84110735.85749  20540702.785    20540708.524  
 115837299.23248  90262821.79148  22043095.648    22043100.503  
 127933670.50146  99688579.56846  24344972.406    24344970.675  
 125426147.58747  97734622.08847  23867809.373    23867813.743  
 109435018.16248  85274015.42848  20824779.982    20824786.425  
 126754276.39047  98769551.38847  24120532.858    24120538.391  
 114799296.99148  89453965.95448  21845578.085    21845583.962  
 120039991.01848  93537616.67847  22842848.384    22842852.522  
 129685110.12847 101053317.84847  24678252.578    24678257.246  
 01 03 04 00 01 25.0000000  0 10 28 03 25 29 20 22 13 01 31 19
 111607895.45648  86967162.49048  21238266.886    21238274.044  
 107934670.69448  84104919.08849  20539282.286    20539288.025  
 115841947.70448  90266443.95848  22043980.248    22043985.102  
 127951866.75646  99702758.43146  24348435.060    24348433.307  
 125434098.41747  97740817.50247  23869322.402    23869326.771  
 109443100.96248  85280313.70348  20826318.100    20826324.530  
 126738285.23947  98757090.70147  24117489.892    24117495.412  
 114787804.70248  89445010.90948  21843391.187    21843397.064  
 120022117.85848  93523689.52747  22839447.247    22839451.384  
 129672242.93847 101043291.53646  24675803.959    24675808.653  
 01 03 04 00 01 30.0000000  0 10 28 03 25 29 20 22 13 01 31 19
 111607408.80848  86966783.29748  21238174.268    21238181.438  
 107927220.84248  84099114.00549  20537864.625    20537870.365  
 115846603.47048  90270071.81748  22044866.209    22044871.077  
 127970065.91746  99716939.45146  24351898.378    24351896.575  
 125442055.24947  97747017.60447  23870836.561    23870840.929  
 109451188.66148  85286615.80248  20827857.137    20827863.568  
 126722300.35347  98744634.93147  24114448.081    24114453.601  
 114776324.01748  89436064.93948  21841206.475    21841212.351  
 120004250.47148  93509766.90747  22836047.170    22836051.310  
 129659373.10347 101033263.06646  24673354.950    24673359.641  
 01 03 04 00 01 35.0000000  0 10 28 03 25 29 20 22 13 01 31 19
 111606928.72148  86966409.20948  21238082.896    21238090.069  
 107919785.59748  84093320.30449  20536449.759    20536455.485  
 115851266.14848  90273705.06748  22045753.500    22045758.355  
 127988267.60646  99731122.59346  24355362.046    24355360.289  
 125450017.70647  97753222.12447  23872351.768    23872356.135  
 109459280.86948  85292921.39648  20829397.058    20829403.476  
 126706321.33747  98732183.76047  24111407.363    24111412.883  
 114764854.56748  89427127.68348  21839023.936    21839029.799  
 119986388.51648  93495848.51047  22832648.140    22832652.281  
 129646500.20547 101023232.29146  24670905.271    24670909.962  
 01 03 04 00 01 40.0000000  0 10 28 03 25 29 20 22 13 01 31 19
 111606455.49348  86966040.44548  21237992.871    21238000.028  
 107912365.24349  84087538.21049  20535037.713    20535043.438  
 115855935.98848  90277343.88648  22046642.153    22046647.020  
 128006472.01047  99745307.65246  24358826.411    24358824.650  
 125457986.00747  97759431.18347  23873868.099    23873872.452  
 109467377.85848  85299230.72948  20830937.877    20830944.294  
 126690348.43847  98719737.37647  24108367.783    24108373.330  
 114753396.61548  89418199.40448  21836843.559    21836849.435  
 119968532.27148  93481934.58047  22829250.186    22829254.327  
 129633624.51347 101013199.19146  24668455.223    24668459.871  
 01 03 04 00 01 45.0000000  0 10 28 03 25 29 20 22 13 01 31 19
 111605989.01648  86965676.95648  21237904.103    21237911.273  
 107904959.70749  84081767.66249  20533628.486    20533634.212  
 115860612.95048  90280988.26648  22047532.163    22047537.016  
 128024679.20747  99759495.08546  24362291.112    24362289.400  
 125465960.09447  97765644.68147  23875385.590    23875389.930  
 109475479.54949  85305543.72848  20832479.576    20832486.006  
 126674381.61747  98707295.62647  24105329.457    24105335.004  
 114741950.10148  89409280.06548  21834665.335    21834671.212  
 119950681.70548  93468025.02047  22825853.360    22825857.501  
 129620745.92947 101003163.97046  24666004.489    24666009.122  
 01 03 04 00 01 50.0000000  0 10 28 03 25 29 20 22 13 01 31 19
 111605528.58048  86965318.18548  21237816.472    21237823.643  
 107897568.28748  84076008.10449  20532221.943    20532227.671  
 115865296.31748  90284637.62748  22048423.389    22048428.243  
 128042888.25346  99773683.83146  24365756.316    24365754.597  
 125473939.20447  97771862.21647  23876903.915    23876908.268  
 109483585.18748  85311859.79848  20834022.055    20834028.470  
 126658420.18347  98694858.18547  24102292.076    24102297.609  
 114730514.32548  89400369.06248  21832489.192    21832495.068  
 119932836.09648  93454119.36847  22822457.427    22822461.571  
 129607863.78147 100993125.90446  24663553.152    24663557.766  
 01 03 04 00 01 55.0000000  0 10 28 03 25 29 20 22 13 01 31 19
 111605075.20148  86964964.88448  21237730.223    21237737.379  
 107890192.04148  84070260.38049  20530818.291    20530824.018  
 115869987.08748  90288292.77148  22049316.013    22049320.867  
 128061100.40347  99787875.06946  24369222.023    24369220.278  
 125481924.41847  97778084.39447  23878423.526    23878427.863  
 109491695.79048  85318179.73848  20835565.464    20835571.866  
 126642465.19147  98682425.70647  24099255.953    24099261.487  
 114719090.33648  89391467.24348  21830315.292    21830321.167  
 119914996.51048  93440218.41147  22819062.641    22819066.798  
 129594979.06747 100983085.83746  24661101.311    24661105.923  
 01 03 04 00 02  0.0000000  0 10 28 03 25 29 20 22 13 01 31 19
 111604628.98548  86964617.17348  21237645.324    21237652.479  
 107882831.07249  84064524.55449  20529417.559    20529423.273  
 115874685.43548  90291953.77048  22050210.127    22050214.968  
 128079315.56346  99802068.69746  24372688.267    24372686.532  
 125489915.81447  97784311.43147  23879944.262    23879948.587  
 109499811.50948  85324503.66548  20837109.832    20837116.248  
 126626516.77547  98669998.43147  24096221.024    24096226.556  
 114707678.27248  89382574.70848  21828143.660    21828149.535  
 119897163.04648  93426322.18347  22815669.070    22815673.203  
 129582091.97146 100973043.97446  24658648.924    24658653.566  
 01 03 04 00 02  5.0000000  0 10 28 03 25 29 20 22 13 01 31 19
 111604189.96048  86964275.07148  21237561.779    21237568.935  
 107875485.40049  84058800.66049  20528019.710    20528025.438  
 115879391.37348  90295620.73848  22051105.638    22051110.479  
 128097533.85647  99816264.55146  24376155.329    24376153.488  
 125497913.38847  97790543.26947  23881466.171    23881470.511  
 109507932.34848  85330831.58448  20838655.190    20838661.592  
 126610574.98147  98657576.16947  24093187.488    24093192.981  
 114696278.13848  89373691.51248  21825974.262    21825980.138  
 119879335.75748  93412430.79947  22812276.637    22812280.771  
 129569202.43447 100963000.17646  24656196.111    24656200.757  
 01 03 04 00 02 10.0000000  0 10 28 03 25 29 20 22 13 01 31 19
 111603757.08748  86963937.76848  21237479.406    21237486.563  
 107868154.02748  84053087.90649  20526624.597    20526630.312  
 115884103.86148  90299292.80348  22052002.394    22052007.235  
 128115754.21846  99830462.20746  24379622.572    24379620.720  
 125505916.11647  97796779.13647  23882989.064    23882993.403  
 109516057.24348  85337162.66948  20840201.305    20840207.708  
 126594638.73047  98645158.29147  24090154.931    24090160.426  
 114684888.94048  89364816.80448  21823806.983    21823812.858  
 119861513.62248  93398543.42547  22808885.199    22808889.331  
 129556309.53247 100952953.71246  24653742.723    24653747.331  
 01 03 04 00 02 15.0000000  0 10 28 03 25 29 20 22 13 01 31 19
 111603330.95248  86963605.70148  21237398.327    21237405.484  
 107860837.54649  84047386.74449  20525232.330    20525238.044  
 115888823.50648  90302970.44248  22052900.511    22052905.365  
                                                                
 125513924.58447  97803019.49147  23884513.038    23884517.364  
 109524186.83148  85343497.40848  20841748.328    20841754.730  
 126578708.65247  98632745.28947  24087123.503    24087128.997  
 114673511.27948  89355951.09048  21821641.900    21821647.761  
 119843697.24348  93384660.55547  22805494.829    22805498.963  
 129543413.79347 100942905.11746  24651288.708    24651293.318  
 01 03 04 00 02 20.0000000  0 10 28 03 25 29 20 22 13 01 31 19
 111602910.96248  86963278.44548  21237318.393    21237325.550  
 107853535.33349  84041696.70849  20523842.765    20523848.467  
 115893549.69948  90306653.17548  22053799.887    22053804.742  
                                                                
 125521938.15747  97809263.78947  23886038.020    23886042.332  
 109532320.48748  85349835.30348  20843296.138    20843302.525  
 126562784.17947  98620336.58947  24084093.187    24084098.682  
 114662144.57548  89347093.91848  21819478.888    21819484.749  
 119825886.07348  93370781.71347  22802105.490    22802109.622  
 129530514.66147 100932853.84446  24648834.084    24648838.683  
 01 03 04 00 02 25.0000000  0 10 28 03 25 29 20 22 13 01 31 19
 111602343.37848  86962836.17448  21237210.386    21237217.543  
 107846093.68749  84035898.02349  20522426.667    20522432.369  
 115898128.72748  90310221.25448  22054671.248    22054676.102  
                                                                
 125529803.11947  97815392.30247  23887534.696    23887539.008  
 109540304.41948  85356056.53548  20844815.441    20844821.828  
 126546711.62047  98607812.48847  24081034.704    24081040.200  
 114650635.09148  89338125.48248  21817288.705    21817294.579  
 119807926.32948  93356787.08447  22798687.874    22798692.009  
 129517458.35347 100922680.07346  24646349.576    24646354.162  
 01 03 04 00 02 30.0000000  0 10 28 03 25 29 20 22 13 01 31 19
 111601937.46048  86962519.87348  21237133.142    21237140.299  
 107838821.86849  84030231.67149  20521042.886    20521048.588  
 115902869.85848  90313915.61348  22055573.479    22055578.333  
                                                                
 125537828.71347  97821646.00147  23889061.929    23889066.240  
 109548447.94748  85362402.13348  20846365.116    20846371.490  
 126530800.21447  98595414.07647  24078006.778    24078012.289  
 114639292.10848  89329286.77648  21815130.233    21815136.093  
 119790127.30748  93342917.74847  22795300.810    22795304.943  
 129504554.18147 100912624.91946  24643893.943    24643898.532  
 01 03 04 00 02 35.0000000  0 10 28 03 25 29 20 22 13 01 31 19
 111601691.66048  86962328.31748  21237086.392    21237093.549  
 107831718.36349  84024696.46249  20519691.147    20519696.847  
 115907771.56748  90317735.10248  22056506.268    22056511.121  
                                                                
 125546013.37247  97828023.63347  23890619.442    23890623.752  
 109556749.53248  85368870.88848  20847944.868    20847951.241  
 126515048.49447  98583139.93347  24075009.399    24075014.895  
 114628114.10748  89320576.65648  21813003.117    21813008.978  
 119772487.51548  93329172.45947  22791944.055    22791948.203  
 129491800.58447 100902687.04046  24641467.027    24641471.603  
 01 03 04 00 02 40.0000000  0 10 28 03 25 29 20 22 13 01 31 19
 111601298.84748  86962022.21948  21237011.655    21237018.799  
 107824476.07748  84019053.13149  20518312.973    20518318.674  
 115912526.73848  90321440.41848  22057411.159    22057416.012  
 128225150.68557                                  24400435.428  
 125554049.96147  97834285.90547  23892148.768    23892153.064  
 109564902.02448  85375223.48148  20849496.236    20849502.609  
 126499149.27547  98570750.95547  24071983.853    24071989.351  
 114616794.01248  89311755.79148  21810848.987    21810854.848  
 119754699.84848  93315311.96047  22788559.148    22788563.310  
 129478890.46847 100892627.19746  24639010.311    24639014.901  
 01 03 04 00 02 45.0000000  0 10 28 03 25 29 20 22 13 01 31 19
 111600912.14348  86961720.88748  21236938.067    21236945.223  
 107817248.13149  84013420.96649  20516937.540    20516943.242  
 115917288.51548  90325150.89348  22058317.295    22058322.148  
 128243388.40946                                  24403905.785  
 125562091.63447  97840552.11747  23893679.071    23893683.368  
 109573058.57748  85381579.22448  20851048.388    20851054.749  
 126483255.71447  98558366.38447  24068959.384    24068964.883  
 114605484.92548  89302943.53648  21808696.914    21808702.776  
 119736917.41648  93301455.50548  22785175.276    22785179.438  
 129465976.96947 100882564.77446  24636552.918    24636557.509  
 01 03 04 00 02 50.0000000  0 10 28 03 25 29 20 22 13 01 31 19
 111600531.97648  86961424.66348  21236865.711    21236872.868  
 107810034.93149  84007800.28949  20515564.914    20515570.616  
 115922057.27648  90328866.78448  22059224.784    22059229.625  
 128261628.50946                                  24407376.677  
 125570138.76647  97846822.55547  23895210.437    23895214.733  
 109581219.56048  85387938.41448  20852601.398    20852607.757  
 126467368.25247  98545986.51847  24065936.140    24065941.623  
 114594187.28348  89294140.16948  21806547.057    21806552.918  
 119719140.69248  93287603.49547  22781792.504    22781796.652  
 129453060.51647 100872499.97946  24634095.023    24634099.589  
 01 03 04 00 02 55.0000000  0 10 28 03 25 29 20 22 13 01 31 19
 111600159.33248  86961134.29548  21236794.800    21236801.956  
 107802837.50648  84002191.88649  20514195.315    20514201.003  
 115926834.06448  90332588.96248  22060133.778    22060138.618  
 128279871.94847                                  24410848.027  
 125578192.35347  97853098.07947  23896742.985    23896747.280  
 109589386.01648  85394301.88748  20854155.423    20854161.781  
 126451487.94347  98533612.22547  24062914.257    24062919.713  
 114582902.10948  89285346.51448  21804399.572    21804405.433  
 119701370.68448  93273756.75347  22778410.958    22778415.120  
 129440142.07046 100862433.64646  24631636.752    24631641.291  
 01 03 04 00 03  0.0000000  0 10 28 03 25 29 20 22 13 01 31 19
 111599793.17848  86960848.98848  21236725.110    21236732.279  
 107795654.81648  83996594.98849  20512828.480    20512834.183  
 115931617.83348  90336316.53948  22061044.121    22061048.950  
 128298117.80847                                  24414320.003  
 125586251.40347  97859377.85547  23898276.570    23898280.878  
 109597556.87448  85400668.78748  20855710.285    20855716.644  
 126435613.73347  98521242.72947  24059893.485    24059898.939  
 114571628.38948  89276561.78148  21802254.266    21802260.127  
 119683606.36148  93259914.41647  22775030.533    22775034.681  
 129427220.65447 100852364.94746  24629177.934    24629182.451  
 01 03 04 00 03  5.0000000  0 10 28 03 25 29 20 22 13 01 31 19
 111599433.93148  86960569.04648  21236656.760    21236663.917  
 107788487.31448  83991009.92449  20511464.550    20511470.252  
 115936409.04948  90340049.93548  22061955.885    22061960.712  
 128316366.35846  99986780.41356  24417792.679    24417791.719  
 125594316.26147  97865662.10747  23899811.310    23899815.617  
 109605732.59048  85407039.45348  20857266.098    20857272.455  
 126419746.05847  98508878.32947  24056873.941    24056879.409  
 114560366.54248  89267786.33148  21800111.196    21800117.057  
 119665848.13248  93246076.83147  22771651.253    22771655.403  
 129414296.64747 100842294.34347  24626718.529    24626723.047  
 01 03 04 00 03 10.0000000  0 10 28 03 25 29 20 22 13 01 31 19
 111599081.85648  86960294.70348  21236589.763    21236596.919  
 107781335.29348  83985436.92149  20510103.566    20510109.268  
 115941207.98348  90343789.36048  22062869.091    22062873.919  
 128334618.01746 100001002.39346  24421266.320    24421264.692  
 125602387.21047  97871951.20147  23901347.109    23901351.444  
 109613913.41548  85413414.11948  20858822.856    20858829.214  
 126403885.19647  98496519.21147  24053855.719    24053861.188  
 114549116.87448  89259020.35348  21797970.455    21797976.328  
 119648096.32648  93232244.27747  22768273.172    22768277.335  
 129401370.41447 100832221.96746  24624258.752    24624263.254  
 01 03 04 00 03 15.0000000  0 10 28 03 25 29 20 22 13 01 31 19
 111598736.39848  86960025.50948  21236524.023    21236531.193  
 107774198.19248  83979875.55049  20508745.407    20508751.111  
 115946014.10648  90347534.39548  22063783.666    22063788.494  
 128352872.09246 100015226.25046  24424740.343    24424738.755  
 125610463.70047  97878244.49347  23902884.087    23902888.408  
 109622098.77248  85419792.30548  20860380.490    20860386.848  
 126388030.63447  98484164.96547  24050838.731    24050844.188  
 114537878.83348  89250263.43148  21795831.940    21795837.800  
 119630350.39148  93218416.28047  22764896.218    22764900.395  
 129388441.32147 100822147.29947  24621798.476    24621802.965  
 01 03 04 00 03 20.0000000  0 10 28 03 25 29 20 22 13 01 31 19
 111598397.20348  86959761.19748  21236459.491    21236466.646  
 107767075.66948  83974325.53749  20507390.037    20507395.740  
 115950827.03948  90351284.69348  22064699.573    22064704.400  
 128371128.23647 100029451.76246  24428214.740    24428213.009  
 125618545.35147  97884541.83047  23904422.038    23904426.331  
 109630288.30548  85426173.75148  20861938.919    20861945.276  
 126372182.00547  98471815.37347  24047822.850    24047828.306  
 114526652.07548  89241515.30448  21793695.558    21793701.419  
 119612609.99848  93204592.58747  22761520.347    22761524.511  
 129375509.04347 100812070.16946  24619337.569    24619342.059  
 01 03 04 00 03 25.0000000  0 10 28 03 25 29 20 22 13 01 31 19
 111597910.89248  86959382.25548  21236366.934    21236374.104  
 107759814.36848  83968667.36849  20506008.270    20506013.960  
 115955493.42148  90354920.82448  22065587.569    22065592.395  
 128389233.18646 100043559.51946  24431660.029    24431658.493  
 125626478.76047  97890723.70047  23905931.729    23905936.021  
 109638328.65048  85432438.94948  20863468.960    20863475.303  
 126356186.00447  98459350.98647  24044778.889    24044784.345  
 114515283.23648  89232656.47948  21791532.127    21791538.001  
 119594721.77548  93190653.72147  22758116.318    22758120.495  
 129362420.22847 100801871.11846  24616846.826    24616851.316  
 01 03 04 00 03 30.0000000  0 10 28 03 25 29 20 22 13 01 31 19
 111597585.28448  86959128.53548  21236304.973    21236312.143  
 107752722.09948  83963140.92949  20504658.657    20504664.346  
 115960321.10648  90358682.63848  22066506.273    22066511.097  
 128407494.56547 100057788.98446  24435135.040    24435133.839  
 125634571.78247  97897029.90347  23907471.829    23907476.107  
 109646527.60848  85438827.74148  20865029.168    20865035.524  
 126340350.41847  98447011.62647  24041765.415    24041770.886  
 114504080.16048  89223926.80148  21789400.266    21789406.127  
 119576993.54448  93176839.52848  22754742.736    22754746.913  
 129349482.69247 100791789.88346  24614384.915    24614389.420  
 01 03 04 00 03 35.0000000  0 10 28 03 25 29 20 22 13 01 31 19
 111597265.76548  86958879.54248  21236244.182    21236251.353  
 107745644.29548  83957625.75549  20503311.795    20503317.485  
 115965155.50648  90362449.67848  22067426.253    22067431.076  
 128425757.96046 100072020.14946  24438610.421    24438609.402  
 125642669.79747  97903340.02747  23909012.841    23909017.132  
 109654730.57749  85445219.65748  20866590.154    20866596.497  
 126324520.69447  98434676.75047  24038753.143    24038758.613  
 114492888.27548  89215205.85348  21787270.522    21787276.382  
 119559270.75948  93163029.53648  22751370.225    22751374.415  
 129336541.86847 100781706.15247  24611922.335    24611926.852  
 01 03 04 00 03 40.0000000  0 10 28 03 25 29 20 22 13 01 31 19
 111596952.89548  86958635.76448  21236184.633    21236191.804  
 107738581.50148  83952122.25949  20501967.801    20501973.492  
 115969997.15348  90366222.39748  22068347.574    22068352.411  
 128444023.76246 100086253.23446  24442086.347    24442085.340  
 125650773.29447  97909654.39547  23910554.935    23910559.200  
 109662938.10748  85451615.11948  20868152.007    20868158.350  
 126308697.37847  98422346.91147  24035742.055    24035747.524  
 114481708.13048  89206494.04648  21785143.009    21785148.883  
 119541553.97948  93149224.27347  22747998.824    22748003.012  
 129323598.27747 100771620.14347  24609459.351    24609463.839  
 01 03 04 00 03 45.0000000  0 10 28 03 25 29 20 22 13 01 31 19
 111596492.20648  86958276.76348  21236096.977    21236104.149  
 107731379.25648  83946510.13549  20500597.247    20500602.938  
 115974691.57648  90369880.36848  22069240.919    22069245.742  
 128462137.57647 100100367.75946  24445533.319    24445532.308  
 125658727.85547  97915852.76647  23912068.625    23912072.903  
 109670995.69648  85457893.75948  20869685.315    20869691.670  
 126292726.02047  98409901.68547  24032702.834    24032708.276  
 114470385.25848  89197671.02848  21782988.338    21782994.212  
 119523688.75148  93135303.32247  22744599.170    22744603.372  
 129310497.45047 100761411.79646  24606966.261    24606970.764  
 01 03 04 00 03 50.0000000  0 10 28 03 25 29 20 22 13 01 31 19
 111596192.94348  86958043.56548  21236040.043    21236047.213  
 107724346.84148  83941030.32349  20499259.037    20499264.726  
 115979548.07248  90373664.63948  22070165.092    22070169.914  
 128480408.61946 100114604.87146  24449010.167    24449009.196  
 125666842.72747  97922176.04947  23913612.820    23913617.111  
 109679212.61148  85464296.52748  20871248.982    20871255.309  
 126276915.94747  98397582.13047  24029694.303    24029699.731  
 114459228.96048  89188977.80048  21780865.378    21780871.239  
 119505984.34448  93121507.69247  22741230.121    22741234.324  
 129297548.66747 100751321.78846  24604502.239    24604506.728  
 01 03 04 00 03 55.0000000  0 10 28 03 25 29 20 22 13 01 31 19
 111595900.28148  86957815.53348  21235984.340    21235991.498  
 107717329.41848  83935562.19849  20497923.665    20497929.355  
 115984411.82048  90377454.55348  22071090.642    22071095.467  
 128498682.01346 100128843.78546  24452487.578    24452486.507  
 125674963.05147  97928503.47547  23915158.149    23915162.429  
 109687434.01048  85470702.81048  20872813.462    20872819.801  
 126261112.23347  98385267.56847  24026686.946    24026692.372  
 114448084.39848  89180293.71548  21778744.651    21778750.511  
 119488285.93048  93107716.71348  22737862.223    22737866.439  
 129284597.10146 100741229.61846  24602037.674    24602042.163  
 01 03 04 00 04  0.0000000  0 10 28 03 25 29 20 22 13 01 31 19
 111595768.44648  86957712.79448  21235959.250    21235966.422  
 107710481.24148  83930225.95649  20496620.500    20496626.190  
 115989437.00048  90381370.27048  22072046.916    22072051.739  
 128517112.10246 100143204.81346  24455994.809    24455993.601  
 125683243.05447  97934955.42947  23916733.782    23916738.061  
 109695814.13648  85477232.77248  20874408.160    20874414.486  
 126245469.19347  98373078.17847  24023710.188    24023715.613  
 114437105.81948  89171738.98148  21776655.498    21776661.357  
 119470747.75148  93094050.59948  22734524.818    22734529.035  
 129271797.00647 100731255.52246  24599601.898    24599606.374  
 01 03 04 00 04  5.0000000  0 10 28 03 25 29 20 22 13 01 31 19
 111595489.37748  86957495.32548  21235906.157    21235913.329  
 107703494.29749  83924781.59049  20495290.915    20495296.619  
 115994315.61948  90385171.78348  22072975.299    22072980.121  
 128535390.79847 100157447.90446  24459473.255    24459471.897  
 125691374.69847  97941291.75747  23918281.194    23918285.473  
 109704044.91148  85483646.35248  20875974.437    20875980.763  
 126229678.80947  98360773.96447  24020705.404    24020710.826  
 114425985.22148  89163073.58948  21774539.306    21774545.166  
 119453061.82148  93080269.37347  22731159.272    22731163.502  
 129258840.30947 100721159.39047  24597136.319    24597140.808  
 01 03 04 00 04 10.0000000  0 10 28 03 25 29 20 22 13 01 31 19
 111595216.41948  86957282.61048  21235854.240    21235861.399  
 107696521.91148  83919348.55649  20493964.128    20493969.818  
 115999201.06548  90388978.61148  22073904.966    22073909.802  
 128553671.32346 100171692.32646  24462952.224    24462950.684  
 125699511.26147  97947631.90447  23919829.568    23919833.834  
 109712279.67548  85490063.05348  20877541.461    20877547.786  
 126213894.37347  98348474.39947  24017701.740    24017707.160  
 114414875.92948  89154416.99048  21772425.291    21772431.150  
 119435381.46048  93066492.47448  22727794.812    22727799.041  
 129245880.37047 100711060.77747  24594670.089    24594674.566  
 01 03 04 00 04 15.0000000  0 10 28 03 25 29 20 22 13 01 31 19
 111594796.41448  86956955.35148  21235774.290    21235781.451  
 107689410.96448  83913807.56049  20492610.960    20492616.650  
 116003940.14848  90392671.41048  22074806.785    22074811.608  
 128571800.63846 100185818.98546  24466402.343    24466400.673  
 125707499.60647  97953856.58947  23921349.684    23921353.965  
 109720365.29048  85496363.51548  20879080.129    20879086.439  
 126197962.78447  98336060.18347  24014670.061    24014675.467  
 114403624.82948  89145649.89448  21770284.276    21770290.137  
 119417553.55248  93052600.61848  22724402.249    22724406.491  
 129232764.02947 100700840.16546  24592174.218    24592178.681  
 01 03 04 00 04 20.0000000  0 10 28 03 25 29 20 22 13 01 31 19
 111594537.68148  86956753.72548  21235725.081    21235732.227  
 107682469.75948  83908398.82549  20491290.091    20491295.782  
 116008841.22248  90396490.40648  22075739.453    22075744.263  
 128590086.90547 100200068.05946  24469882.188    24469880.422  
 125715648.06747  97960205.98947  23922900.349    23922904.602  
 109728610.05248  85502787.99648  20880649.068    20880655.377  
 126182192.43547  98323771.59847  24011669.063    24011674.482  
 114392540.25048  89137012.56048  21768174.951    21768180.811  
 119399886.40948  93038834.01148  22721040.318    22721044.558  
 129219799.67247 100690738.07047  24589707.199    24589711.646  
 01 03 04 00 04 25.0000000  0 10 28 03 25 29 20 22 13 01 31 19
 111594438.77048  86956676.64448  21235706.257    21235713.405  
 107675696.83848  83903121.22749  20490001.248    20490006.939  
 116013902.79248  90400434.46448  22076702.648    22076707.471  
 128608528.82646 100214438.17846  24473391.900    24473390.005  
 125723955.16747  97966679.01247  23924481.173    23924485.426  
 109737012.49748  85509335.34848  20882247.998    20882254.309  
 126166581.86347  98311607.53447  24008698.444    24008703.865  
 114381620.72148  89128503.82148  21766097.046    21766102.906  
 119382378.61548  93025191.56747  22717708.694    22717712.935  
 129206985.76947 100680753.17447  24587268.846    24587273.265  
 01 03 04 00 04 30.0000000  0 10 28 03 25 29 20 22 13 01 31 19
 111594192.11748  86956484.47148  21235659.296    21235666.457  
 107668784.67349  83897735.10749  20488685.918    20488691.609  
 116018817.35648  90404263.98848  22077637.872    22077642.682  
 128626818.68646 100228690.09546  24476872.379    24476870.438  
 125732113.32147  97973036.02347  23926033.605    23926037.871  
 109745265.06049  85515765.91448  20883818.423    20883824.732  
 126150823.52647  98299328.34047  24005699.709    24005705.141  
 114370558.71048  89119884.08548  21763992.018    21763997.863  
 119364722.64948  93011433.65447  22714348.902    22714353.129  
 129194014.84747 100670645.99047  24584800.538    24584804.968  
 01 03 04 00 04 35.0000000  0 10 28 03 25 29 20 22 13 01 31 19
 111593952.17848  86956297.48348  21235613.662    21235620.810  
 107661887.74149  83892360.88149  20487373.462    20487379.155  
 116023739.38548  90408099.30748  22078574.527    22078579.337  
 128645111.21347 100242943.85746  24480353.583    24480351.497  
 125740277.03547  97979397.32547  23927587.130    23927591.398  
 109753522.27148  85522200.08848  20885389.730    20885396.039  
 126135071.90247  98287054.28747  24002702.352    24002707.754  
 114359508.72348  89111273.70748  21761889.276    21761895.121  
 119347072.94948  92997680.67448  22710990.237    22710994.479  
 129181041.30547 100660536.72147  24582331.782    24582336.197  
 01 03 04 00 04 40.0000000  0 10 28 03 25 29 20 22 13 01 31 19
 111593718.55648  86956115.42448  21235569.217    21235576.365  
 107655005.65248  83886998.21249  20486063.858    20486069.537  
 116028668.43948  90411940.11748  22079512.507    22079517.316  
 128663405.66846 100257199.29846  24483834.892    24483832.852  
 125748445.82347  97985762.59247  23929141.609    23929145.890  
 109761783.63248  85528637.51648  20886961.815    20886968.123  
 126119326.57447  98274785.19647  23999706.114    23999711.518  
 114348470.35248  89102672.36448  21759788.755    21759794.600  
 119329429.13748  92983932.25848  22707632.719    22707636.973  
 129168064.77347 100650425.12247  24579862.457    24579866.869  
 01 03 04 00 04 45.0000000  0 10 28 03 25 29 20 22 13 01 31 19
 111593337.70948  86955818.66948  21235496.731    21235503.880  
 107647984.83149  83881527.43749  20484727.839    20484733.519  
 116033450.99248  90415666.77948  22080422.596    22080427.406  
 128681548.64247 100271336.54546  24487287.474    24487285.452  
 125756466.13747  97992012.10647  23930667.896    23930672.165  
 109769895.62248  85534958.53048  20888505.487    20888511.796  
 126103434.00847  98262401.37747  23996681.859    23996687.275  
 114337290.04348  89093960.43048  21757661.212    21757667.058  
 119311637.66948  92970068.76048  22704247.141    22704251.381  
 129154931.69546 100640191.57347  24577363.304    24577367.716  
 01 03 04 00 04 50.0000000  0 10 28 03 25 29 20 22 13 01 31 19
 111593116.43048  86955646.23548  21235454.636    21235461.784  
 107641132.14548  83876187.68449  20483423.817    20483429.496  
 116038393.86948  90419518.35348  22081363.205    22081368.016  
 128699847.02246 100285594.82846  24490769.661    24490767.708  
 125764644.80547  97998385.11047  23932224.233    23932228.502  
 109778165.07248  85541402.24148  20890079.137    20890085.432  
 126087701.03147  98250141.93447  23993687.948    23993693.377  
 114326274.63448  89085376.99848  21755565.050    21755570.884  
 119294005.42448  92956329.34948  22700891.837    22700896.076  
 129141948.93247 100630075.11147  24574892.807    24574897.202  
 01 03 04 00 04 55.0000000  0 10 28 03 25 29 20 22 13 01 31 19
 111592747.52748  86955358.77948  21235384.436    21235391.584  
 107634140.41048  83870739.58249  20482093.335    20482099.013  
 116043189.88648  90423255.49048  22082275.882    22082280.668  
 128717993.42347 100299734.89346  24494222.733    24494220.830  
 125772674.59847  98004642.04847  23933752.287    23933756.556  
 109786284.81948  85547729.33048  20891624.262    20891630.556  
 126071820.44847  98237767.43047  23990665.998    23990671.415  
 114315116.96648  89076682.72048  21753441.803    21753447.650  
 119276225.18348  92942474.63448  22697508.344    22697512.585  
 129128809.25547 100619836.38847  24572392.421    24572396.816  
 01 03 04 00 05  0.0000000  0 10 28 03 25 29 20 22 13 01 31 19
 111592540.18948  86955197.21948  21235344.982    21235352.129  
 107627318.78449  83865424.01749  20480795.235    20480800.913  
 116048148.25748  90427119.15548  22083219.429    22083224.214  
 128736297.12646 100313997.43546  24497705.913    24497704.039  
 125780864.71247  98011023.98747  23935310.791    23935315.059  
 109794563.95548  85554180.57548  20893199.752    20893206.035  
 126056101.47747  98225518.90447  23987674.752    23987680.182  
 114304126.20548  89068118.46948  21751350.356    21751356.190  
 119258606.13848  92928745.50648  22694155.550    22694159.792  
 129115821.84747 100609716.31547  24569921.011    24569925.407  
 01 03 04 00 05  5.0000000  0 10 28 03 25 29 20 22 13 01 31 19
 111592493.38448  86955160.73248  21235336.087    21235343.222  
 107620666.28748  83860240.26349  20479529.294    20479534.973  
 116053267.97648  90431108.52148  22084193.703    22084198.488  
 128754757.08947 100328381.80246  24501218.753    24501216.913  
 125789214.15747  98017530.00447  23936899.673    23936903.941  
 109803001.53048  85560755.29748  20894805.382    20894811.664  
 126040543.09747  98213395.51347  23984714.066    23984719.497  
 114293301.38348  89059683.55548  21749290.449    21749296.283  
 119241147.33448  92915141.25148  22690833.252    22690837.492  
 129102985.74947 100599714.17747  24567478.372    24567482.767  
 01 03 04 00 05 10.0000000  0 10 28 03 25 29 20 22 13 01 31 19
 111592299.04948  86955009.29148  21235299.118    21235306.254  
 107613874.85048  83854948.23249  20478236.926    20478242.617  
 116058240.94948  90434983.53848  22085140.052    22085144.825  
 128773065.30546 100342647.83146  24504702.846    24504700.970  
 125797414.83947  98023920.11747  23938460.234    23938464.503  
 109811289.41048  85567213.37948  20896382.527    20896388.807  
 126024837.28847  98201157.19447  23981725.374    23981730.805  
 114282334.43348  89051137.84648  21747203.530    21747209.366  
 119223540.71848  92901421.81848  22687482.811    22687487.053  
 129089992.87747 100589589.87847  24565005.899    24565010.293  
 01 03 04 00 05 15.0000000  0 10 28 03 25 29 20 22 13 01 31 19
 111591957.34948  86954743.01348  21235234.121    21235241.242  
 107606944.69148  83849548.10449  20476918.159    20476923.852  
 116063067.42248  90438744.41648  22086058.513    22086063.273  
 128791221.90546 100356795.77946  24508158.026    24508156.103  
 125805466.92147  98030194.40447  23939992.571    23939996.811  
 109819427.84448  85573555.01648  20897931.219    20897937.500  
 126008984.25847  98188804.17347  23978708.655    23978714.085  
 114271225.57248  89042481.61448  21745089.559    21745095.396  
 119205786.46748  92887587.33648  22684104.289    22684108.531  
 129076843.42047 100579343.47847  24562503.715    24562508.094  
 01 03 04 00 05 20.0000000  0 10 28 03 25 29 20 22 13 01 31 19
 111591776.04948  86954601.73748  21235199.620    21235206.742  
 107600183.56248  83844279.69949  20475631.561    20475637.240  
 116068055.11848  90442630.90448  22087007.663    22087012.424  
 128809534.52147 100371065.32946  24511642.857    24511640.914  
 125813678.10947  98036592.74247  23941555.080    23941559.336  
 109827724.55048  85580019.98548  20899510.016    20899516.310  
 125993291.72147  98176576.24847  23975722.440    23975727.883  
 114260282.52348  89033954.55148  21743007.179    21743013.015  
 119188192.34248  92873877.62448  22680756.253    22680760.480  
 129063845.12847 100569214.90547  24560030.260    24560034.625  
 01 03 04 00 05 25.0000000  0 10 28 03 25 29 20 22 13 01 31 19
 111591755.71548  86954585.90648  21235195.739    21235202.873  
 107593592.08648  83839143.47949  20474377.244    20474382.935  
 116073204.65848  90446643.52848  22087987.587    22087992.348  
                                                                
 125822049.04547  98043115.48647  23943148.092    23943152.320  
 109836180.09748  85586608.69348  20901119.091    20901125.371  
 125977760.33247  98164473.88047  23972766.903    23972772.346  
 114249505.95048  89025557.21148  21740956.478    21740962.301  
 119170758.97948  92860293.19148  22677438.781    22677443.010  
 129050998.61647 100559204.66047  24557585.626    24557590.003  
 01 03 04 00 05 30.0000000  0 10 28 03 25 29 20 22 13 01 31 19
 111591588.11148  86954455.30548  21235163.845    21235170.979  
 107586861.99148  83833899.25449  20473096.551    20473102.229  
 116078207.78148  90450542.05048  22088939.661    22088944.423  
                                                                
 125830271.39647  98049522.51647  23944712.739    23944716.981  
 109844486.30948  85593081.06648  20902699.711    20902705.991  
 125962081.85747  98152256.85647  23969783.427    23969788.855  
 114238587.58848  89017049.40748  21738878.770    21738884.606  
 119153178.11048  92846593.82748  22674093.241    22674097.482  
 129037995.57147 100549072.39647  24555111.269    24555115.630  
 01 03 04 00 05 35.0000000  0 10 28 03 25 29 20 22 13 01 31 19
 111591427.02948  86954329.78748  21235133.192    21235140.326  
 107580147.09548  83828666.85249  20471818.760    20471824.439  
 116083218.27448  90454446.31848  22089893.138    22089897.888  
                                                                
 125838499.01247  98055933.62547  23946278.428    23946282.656  
 109852796.88448  85599556.83448  20904281.159    20904287.441  
 125946410.07047  98140045.09147  23966801.174    23966806.601  
 114227681.25948  89008550.94748  21736803.375    21736809.212  
 119135603.58248  92832899.38848  22670748.934    22670753.160  
 129024989.94847 100538938.17647  24552636.358    24552640.719  
 01 03 04 00 05 40.0000000  0 10 28 03 25 29 20 22 13 01 31 19
 111591272.35848  86954209.26148  21235103.758    21235110.893  
 107573447.29848  83823446.23049  20470543.831    20470549.510  
 116088236.05548  90458356.26948  22090848.004    22090852.740  
                                                                
 125846731.77547  98062348.72847  23947845.107    23947849.335  
 109861111.73648  85606035.92448  20905863.450    20905869.716  
 125930744.88947  98127838.43747  23963820.200    23963825.640  
 114216786.86448  89000061.81048  21734730.240    21734736.078  
 119118035.27248  92819209.81048  22667405.784    22667410.010  
 129011981.54047 100528801.75747  24550160.941    24550165.301  
 01 03 04 00 05 45.0000000  0 10 28 03 25 29 20 22 13 01 31 19
 111590970.14748  86953973.75248  21235046.275    21235053.408  
 107566608.64848  83818117.41549  20469242.480    20469248.158  
 116093107.19048  90462151.93748  22091774.975    22091779.710  
                                                                
 125854815.70747  98068647.84747  23949383.477    23949387.691  
 109869276.93848  85612398.41148  20907417.234    20907423.515  
 125914932.45947  98115517.03847  23960811.219    23960816.658  
 114205750.46548  88991462.00248  21732630.095    21732635.933  
 119100319.27848  92805405.13948  22664034.542    22664038.769  
 128998816.41247 100518543.14546  24547655.790    24547660.120  
 01 03 04 00 05 50.0000000  0 10 28 03 25 29 20 22 13 01 31 19
 111590674.37048  86953743.27048  21234990.004    21234997.123  
 107559785.12749  83812800.40749  20467943.981    20467949.673  
 116097985.65948  90465953.32748  22092703.329    22092708.064  
                                                                
 125862904.77547  98074951.02447  23950922.777    23950926.978  
 109877446.44748  85618764.25748  20908971.839    20908978.120  
 125899126.67047  98103200.83447  23957803.491    23957808.917  
 114194726.03448  88982871.55148  21730532.204    21730538.041  
 119082609.55448  92791605.33448  22660664.504    22660668.732  
 128985648.54447 100508282.49446  24545150.004    24545154.334  
 01 03 04 00 05 55.0000000  0 10 28 03 25 29 20 22 13 01 31 19
 111590539.03748  86953637.82448  21234964.238    21234971.370  
 107553130.78748  83807615.18749  20466677.728    20466683.406  
 116103025.48548  90469880.46948  22093662.377    22093667.099  
                                                                
 125871152.96547  98081378.14947  23952492.393    23952496.592  
 109885774.29349  85625253.46448  20910556.600    20910562.881  
 125883481.58747  98091009.86647  23954826.317    23954831.757  
 114183867.63348  88974410.43448  21728465.943    21728471.768  
 119065060.17348  92777930.52248  22657324.945    22657329.172  
 128972631.99946 100498139.71647  24542673.065    24542677.368  
 01 03 04 00 06  0.0000000  0 10 28 03 25 29 20 22 13 01 31 19
 111590564.24048  86953657.46148  21234969.034    21234976.166  
 107546645.68348  83802561.85749  20465443.653    20465449.332  
 116108226.74548  90473933.37348  22094652.168    22094656.889  
                                                                
 125879560.36247  98087929.34247  23954092.292    23954096.479  
 109894260.49448  85631866.09948  20912171.457    20912177.739  
 125867997.28747  98078944.20647  23951879.729    23951885.169  
 114173175.35148  88966078.78148  21726431.268    21726437.107  
 119047671.20148  92764380.67948  22654015.920    22654020.149  
 128959766.85047 100488114.95147  24540224.884    24540229.199  
 01 03 04 00 06  5.0000000  0 10 28 03 25 29 20 22 13 01 31 19
 111590441.94248  86953562.15748  21234945.775    21234952.894  
 107540021.83248  83797400.41949  20464183.178    20464188.855  
 116113281.39848  90477872.06348  22095614.036    22095618.758  
                                                                
 125887818.97847  98094364.60047  23955663.893    23955668.065  
 109902597.01648  85638362.07648  20913757.857    20913764.138  
 125852365.82947  98066763.86947  23948905.136    23948910.589  
 114162341.15948  88957636.56548  21724369.577    21724375.417  
 119030134.63348  92750715.80148  22650678.847    22650683.063  
 128946745.06747 100477968.05647  24537746.970    24537751.272  
 01 03 04 00 06 10.0000000  0 10 28 03 25 29 20 22 13 01 31 19
 111590326.20948  86953471.96948  21234923.765    21234930.870  
 107533413.31648  83792250.91749  20462925.632    20462931.296  
 116118343.57948  90481816.59248  22096577.361    22096582.083  
                                                                
 125896082.85547  98100803.92647  23957236.503    23957240.664  
 109910937.99248  85644861.52248  20915345.118    20915351.385  
 125836741.31647  98054588.92447  23945931.875    23945937.343  
 114151519.16348  88949203.84348  21722310.221    21722316.059  
 119012604.58348  92737056.03648  22647342.978    22647347.193  
 128933720.72747 100467819.26747  24535268.471    24535272.787  
 01 03 04 00 06 15.0000000  0 10 28 03 25 29 20 22 13 01 31 19
 111590217.11648  86953386.94848  21234903.017    21234910.123  
 107526820.24548  83787113.46449  20461670.998    20461676.677  
 116123413.36348  90485767.05148  22097542.134    22097546.854  
                                                                
 125904352.06247  98107247.43247  23958810.104    23958814.265  
 109919283.47648  85651364.49848  20916933.196    20916939.478  
 125821123.80047  98042419.41547  23942959.971    23942965.440  
 114140709.43948  88940780.65548  21720253.223    21720259.049  
 118995081.13348  92723401.41048  22644008.364    22644012.592  
 128920693.93147 100457668.49947  24532789.565    24532793.882  
 01 03 04 00 06 20.0000000  0 10 28 03 25 29 20 22 13 01 31 19
 111589960.24848  86953186.79248  21234854.137    21234861.242  
 107520088.15548  83781867.67149  20460389.937    20460395.603  
 116128336.29848  90489603.07448  22098478.960    22098483.681  
 129029301.85856                                  24553462.734  
 125912472.15447  98113574.79547  23960355.280    23960359.456  
 109927479.00748  85657750.61848  20918492.767    20918499.048  
 125805358.85747  98030135.05947  23939959.991    23939965.460  
 114129757.59448  88932246.75048  21718169.156    21718174.982  
 118977409.89848  92709631.62148  22640645.640    22640649.856  
 128907510.24047 100447395.49747  24530280.793    24530285.109  
 01 03 04 00 06 25.0000000  0 10 28 03 25 29 20 22 13 01 31 19
 111589863.41848  86953111.33348  21234835.724    21234842.828  
 107513524.92448  83776753.48149  20459140.985    20459146.649  
 116133420.26248  90493564.60848  22099446.392    22099451.128  
                                                                
 125920750.94347  98120025.78247  23961930.692    23961934.869  
 109935832.45448  85664259.78248  20920082.387    20920088.668  
 125789754.35847  98017975.68047  23936990.577    23936996.046  
 114118971.47248  88923841.99548  21716116.614    21716122.439  
 118959898.70048  92695986.53548  22637313.371    22637317.586  
 128894477.49447 100437240.09747  24527800.771    24527805.072  
 01 03 04 00 06 30.0000000  0 10 28 03 25 29 20 22 13 01 31 19
 111589772.50548  86953040.49448  21234818.425    21234825.516  
 107506976.43648  83771650.76749  20457894.850    20457900.514  
 116138511.17848  90497531.53848  22100415.188    22100419.909  
                                                                
 125929034.32447  98126480.32947  23963506.989    23963511.167  
 109944189.65048  85670771.88148  20921672.708    20921678.989  
 125774156.20947  98005821.31247  23934022.310    23934027.793  
 114108196.99048  88915446.28448  21714066.311    21714072.136  
 118942393.47548  92682346.11348  22633982.225    22633986.440  
 128881441.61147 100427082.25747  24525320.123    24525324.426  
 01 03 04 00 06 35.0000000  0 10 28 03 25 29 20 22 13 01 31 19
 111589533.94348  86952854.58848  21234773.040    21234780.131  
 107500289.11148  83766439.84749  20456622.305    20456627.970  
 116143455.41848  90501384.18848  22101356.044    22101360.778  
                                                                
 125937168.70847  98132818.76747  23965054.961    23965059.125  
 109952397.06248  85677167.25148  20923234.538    20923240.820  
 125758410.83047  97993552.17647  23931026.078    23931031.547  
 114097280.56948  88906939.97548  21711988.983    21711994.810  
 118924740.62048  92668590.66248  22630622.973    22630627.190  
 128868248.99647 100416802.28247  24522809.663    24522813.967  
 01 03 04 00 06 40.0000000  0 10 28 03 25 29 20 22 13 01 31 19
 111589610.81448  86952914.51048  21234787.643    21234794.747  
 107493926.04848  83761481.61549  20455411.454    20455417.119  
 116148716.09948  90505483.39948  22102357.144    22102361.864  
                                                                
 125945617.16247  98139401.93447  23966662.684    23966666.848  
 109960917.72648  85683806.74148  20924855.954    20924862.236  
 125742981.36147  97981529.23847  23928089.907    23928095.405  
 114086685.27648  88898683.91648  21709972.754    21709978.581  
 118907403.24748  92655081.01448  22627323.779    22627328.009  
 128855362.72447 100406761.08047  24520357.438    24520361.767  
 01 03 04 00 06 45.0000000  0 10 28 03 25 29 20 22 13 01 31 19
 111589540.00248  86952859.30848  21234774.193    21234781.284  
 107487424.13448  83756415.18949  20454174.181    20454179.846  
 116153830.12648  90509468.31148  22103330.346    22103335.067  
                                                                
 125953916.53047  98145868.95947  23968242.012    23968246.177  
 109969288.54048  85690329.43748  20926448.878    20926455.161  
 125727404.63747  97969391.50947  23925125.781    23925131.265  
 114075948.03848  88890317.23448  21707929.540    21707935.352  
 118889918.26948  92641456.33648  22623996.524    22624000.740  
 128842319.68647 100396597.63147  24517875.481    24517879.783  
 01 03 04 00 06 50.0000000  0 10 28 03 25 29 20 22 13 01 31 19
 111589475.22648  86952808.83448  21234761.866    21234768.957  
 107480937.12148  83751360.37449  20452939.744    20452945.408  
 116158951.25848  90513458.81448  22104304.852    22104309.586  
 129139403.94357                                  24574411.967  
 125962220.58747  98152339.65247  23969822.222    23969826.387  
 109977663.22748  85696855.15648  20928042.541    20928048.811  
 125711834.42147  97957258.84547  23922162.891    23922168.375  
 114065222.59748  88881959.74148  21705888.555    21705894.381  
 118872439.45148  92627836.50648  22620670.392    22620674.608  
 128829273.66347 100386431.87547  24515392.945    24515397.231  
 01 03 04 00 06 55.0000000  0 10 28 03 25 29 20 22 13 01 31 19
 111589263.10548  86952643.55448  21234721.488    21234728.592  
 107474311.64448  83746197.66449  20451678.957    20451684.622  
 116163926.08648  90517335.29848  22105251.544    22105256.264  
 129157603.56546                                  24577875.252  
 125970375.90647  98158694.42447  23971374.137    23971378.316  
 109985888.36948  85703264.33148  20929607.772    20929614.027  
 125696117.33347  97945011.79147  23919172.004    23919177.489  
 114054355.57248  88873491.91848  21703820.641    21703826.466  
 118854813.38448  92614101.91348  22617316.249    22617320.479  
 128816071.23247 100376144.24647  24512880.632    24512884.904  
 01 03 04 00 07  0.0000000  0 10 28 03 25 29 20 22 13 01 31 19
 111589211.58648  86952603.41048  21234711.700    21234718.788  
 107467855.64448  83741167.00349  20450450.433    20450456.098  
 116169062.56848  90521337.74048  22106228.997    22106233.716  
 129175959.41747                                  24581368.266  
 125978690.44347  98165173.22747  23972956.404    23972960.567  
 109994271.99748  85709797.04048  20931203.111    20931209.367  
 125680561.41547  97932890.31647  23916211.801    23916217.284  
 114043654.96048  88865153.77148  21701784.396    21701790.208  
 118837348.03448  92600492.55748  22613992.705    22613996.933  
 128803020.39447 100365974.79047  24510397.116    24510401.388  
 01 03 04 00 07  5.0000000  0 10 28 03 25 29 20 22 13 01 31 19
 111589012.57548  86952448.32048  21234673.841    21234680.930  
 107461261.00148  83736028.32449  20449195.516    20449201.179  
 116174052.59048  90525226.05948  22107178.579    22107183.286  
                                                                
 125986856.09247  98171536.03047  23974510.311    23974514.474  
 110002505.97048  85716213.11048  20932769.996    20932776.240  
 125664858.51047  97920654.24547  23913223.673    23913229.156  
 114032812.64648  88856705.21648  21699721.172    21699726.984  
 118819735.33748  92586768.36648  22610641.133    22610645.349  
 128789813.01447 100355683.29547  24507883.874    24507888.143  
 01 03 04 00 07 10.0000000  0 10 28 03 25 29 20 22 13 01 31 19
 111589127.97548  86952538.24748  21234695.801    21234702.890  
 107454989.70948  83731141.60049  20448002.128    20448007.792  
 116179358.15648  90529360.25448  22108188.192    22108192.901  
                                                                
 125995334.76347  98178142.76347  23976123.758    23976127.936  
 110011052.18348  85722872.50348  20934396.273    20934402.530  
 125649470.57847  97908663.69347  23910295.397    23910300.895  
 114022290.60248  88848506.22248  21697718.894    21697724.706  
 118802437.24948  92573289.31848  22607349.427    22607353.656  
 128776911.05547 100345629.84347  24505428.688    24505432.958  
 01 03 04 00 07 15.0000000  0 10 28 03 25 29 20 22 13 01 31 19
 111589094.72748  86952512.33748  21234689.474    21234696.563  
 107448578.67848  83726146.00149  20446782.151    20446787.802  
 116184516.17248  90533379.46148  22109169.769    22109174.463  
                                                                
 126003663.38547  98184632.57447  23977708.666    23977712.832  
 110019447.55748  85729414.32448  20935993.883    20936000.140  
 125633934.58247  97896557.67747  23907339.046    23907344.517  
 114011625.75748  88840195.94648  21695689.440    21695695.253  
 118784990.73048  92559694.67948  22604029.416    22604033.658  
 128763851.44246 100335453.52447  24502943.527    24502947.796  
 01 03 04 00 07 20.0000000  0 10 28 03 25 29 20 22 13 01 31 19
 111588914.04748  86952371.53248  21234655.103    21234662.192  
 107442029.14948  83721042.47849  20445535.804    20445541.468  
 116189527.87648  90537284.66048  22110123.489    22110128.182  
                                                                
 126011843.16647  98191006.41747  23979265.239    23979269.404  
 110027693.37148  85735839.63448  20937563.009    20937569.267  
 125618251.72747  97884337.31847  23904354.648    23904360.133  
 114000819.32348  88831775.34248  21693633.058    21693638.869  
 118767396.98148  92545985.27048  22600681.439    22600685.667  
 128750635.40147 100325155.23847  24500428.672    24500432.927  
 01 03 04 00 07 25.0000000  0 10 28 03 25 29 20 22 13 01 31 19
 111588894.43348  86952356.26148  21234651.359    21234658.448  
 107435649.62548  83716071.40849  20444321.833    20444327.497  
 116194701.78948  90541316.26548  22111108.064    22111112.757  
                                                                
 126020182.57047  98197504.59847  23980852.222    23980856.375  
 110036098.09748  85742388.76348  20939162.389    20939168.633  
 125602730.56347  97872242.87547  23901401.092    23901406.577  
 113990179.81548  88823484.81048  21691608.441    21691614.238  
 118749964.49848  92532401.49348  22597364.172    22597368.399  
 128737571.42747 100314975.56547  24497942.630    24497946.900  
 01 03 04 00 07 30.0000000  0 10 28 03 25 29 20 22 13 01 31 19
 111588881.15848  86952345.90148  21234648.859    21234655.934  
 107429285.38448  83711112.25849  20443110.773    20443116.422  
 116199883.13548  90545353.66248  22112094.052    22112098.746  
                                                                
 126028526.87147  98204006.60647  23982440.140    23982444.279  
 110044506.96348  85748941.11948  20940762.541    20940768.798  
 125587216.35247  97860153.86947  23898448.848    23898454.333  
 113979552.55148  88815203.82548  21689586.139    21689591.937  
 118732538.62448  92518822.92048  22594048.100    22594052.342  
 128724504.79647 100304793.79046  24495456.122    24495460.391  
 01 03 04 00 07 35.0000000  0 10 28 03 25 29 20 22 13 01 31 19
 111588720.45548  86952220.68448  21234618.265    21234625.353  
 107422782.66948  83706045.19449  20441873.360    20441879.008  
 116204918.17948  90549277.07848  22113052.191    22113056.872  
                                                                
 126036722.29547  98210392.70047  23983999.629    23984003.781  
 110052766.26548  85755376.92948  20942334.247    20942340.491  
 125571555.34647  97847950.49747  23895468.645    23895474.143  
 113968783.76948  88806812.55548  21687536.921    21687542.717  
 118714965.60448  92505129.66148  22590704.066    22590708.308  
 128711281.76047 100294490.03346  24492939.946    24492944.214  
 01 03 04 00 07 40.0000000  0 10 28 03 25 29 20 22 13 01 31 19
 111588873.61348  86952340.02648  21234647.409    21234654.498  
 107416602.80548  83701229.72849  20440697.358    20440703.007  
 116210268.19848  90553445.88848  22114070.303    22114074.970  
 129322721.96657                                  24609295.192  
 126045230.14847  98217022.12747  23985618.694    23985622.831  
 110061337.26649  85762055.62148  20943965.252    20943971.511  
 125556208.85447  97835992.15447  23892548.341    23892553.826  
 113958334.79648  88798670.48948  21685548.545    21685554.344  
 118697706.75548  92491681.20948  22587419.817    22587424.058  
 128698363.64747 100284423.94446  24490481.734    24490485.990  
 01 03 04 00 07 45.0000000  0 10 28 03 25 29 20 22 13 01 31 19
 111588724.70648  86952223.99848  21234619.074    21234626.162  
 107410129.91248  83696185.91049  20439465.607    20439471.257  
 116215317.29348  90557380.23848  22115031.126    22115035.793  
 129340940.79346                                  24612762.631  
 126053434.52147  98223415.11447  23987179.957    23987184.095  
 110069604.07649  85768497.29148  20945538.373    20945544.632  
 125540560.99947  97823799.03347  23889570.626    23889576.127  
 113947589.73148  88790297.72548  21683503.815    21683509.614  
 118680146.17348  92477997.62648  22584078.162    22584082.402  
 128685134.54346 100274115.58547  24487964.297    24487968.552  
 01 03 04 00 07 50.0000000  0 10 28 03 25 29 20 22 13 01 31 19
 111588736.69548  86952233.33548  21234621.369    21234628.455  
 107403826.94148  83691274.50049  20438266.205    20438271.841  
 116220528.49848  90561440.90448  22116022.798    22116027.464  
 129359316.07947                                  24616259.236  
 126061798.29747  98229932.32647  23988771.557    23988775.680  
 110078029.59548  85775062.63448  20947141.697    20947147.943  
 125525074.78747  97811731.88547  23886623.675    23886629.187  
 113937011.53548  88782054.96048  21681490.863    21681496.662  
