     2              OBSERVATION DATA    G                   RINEX VERSION / TYPE
LEICA GEO OFFICE 1.0                    5-6-8 08:46         PGM / RUN BY / DATE
                                                            OBSERVER / AGENCY
L02102                                                      MARKER NAME
L02102                                                      MARKER NUMBER
462045              LEICA GX1230        2.14                REC # / TYPE / VERS
                    LEIAX1202                               ANT # / TYPE
 -2267735.3806  5009170.7550  3221262.1153                  APPROX POSITION XYZ
        1.5430        0.0000        0.0000                  ANTENNA: DELTA H/E/N
L1PhaOff:   0.0648  L2PhaOff:   0.0622                      COMMENT
     1     1                                                WAVELENGTH FACT L1/2
     6    C1    L1    D1    P2    L2    D2                  # / TYPES OF OBSERV
  2008     6     4     1    33   15.000000                  TIME OF FIRST OBS
  2008     6     4     2    34   15.000000                  TIME OF LAST OBS
    14                                                      LEAP SECONDS
     8                                                      # OF SATELLITES
          C1    P1    L1    D1    P2    L2    D2            COMMENT
   G 1     0     0     0     0     0     0     0            PRN / # OF OBS
   G 2     0     0     0     0     0     0     0            PRN / # OF OBS
   G 3     0     0     0     0     0     0     0            PRN / # OF OBS
   G 4     0     0     0     0     0     0     0            PRN / # OF OBS
   G 5     0     0     0     0     0     0     0            PRN / # OF OBS
   G 6     0     0     0     0     0     0     0            PRN / # OF OBS
   G 7     0     0     0     0     0     0     0            PRN / # OF OBS
   G 8     0     0     0     0     0     0     0            PRN / # OF OBS
   G 9   245     0   245   245   245   245   245            PRN / # OF OBS
   G10   245     0   245   245   245   245   245            PRN / # OF OBS
   G11     0     0     0     0     0     0     0            PRN / # OF OBS
   G12     0     0     0     0     0     0     0            PRN / # OF OBS
   G13     0     0     0     0     0     0     0            PRN / # OF OBS
   G14     0     0     0     0     0     0     0            PRN / # OF OBS
   G15   245     0   245   245   245   245   245            PRN / # OF OBS
   G16     0     0     0     0     0     0     0            PRN / # OF OBS
   G17     0     0     0     0     0     0     0            PRN / # OF OBS
   G18   227     0   227   227   224   224   224            PRN / # OF OBS
   G19     0     0     0     0     0     0     0            PRN / # OF OBS
   G20     0     0     0     0     0     0     0            PRN / # OF OBS
   G21   245     0   245   245   245   245   245            PRN / # OF OBS
   G22     0     0     0     0     0     0     0            PRN / # OF OBS
   G23     0     0     0     0     0     0     0            PRN / # OF OBS
   G24   245     0   245   245   245   245   245            PRN / # OF OBS
   G25     0     0     0     0     0     0     0            PRN / # OF OBS
   G26   245     0   245   245   245   245   245            PRN / # OF OBS
   G27     0     0     0     0     0     0     0            PRN / # OF OBS
   G28     0     0     0     0     0     0     0            PRN / # OF OBS
   G29   208     0   208   208   208   208   208            PRN / # OF OBS
   G30     0     0     0     0     0     0     0            PRN / # OF OBS
   G31     0     0     0     0     0     0     0            PRN / # OF OBS
   G32     0     0     0     0     0     0     0            PRN / # OF OBS
                                                            END OF HEADER
  8  6  4  1 33 15.0000000  0  8G24G29G15G26G21G 9G18G10
  20376359.953   107078493.62059       276.437    20376362.367    83437797.00457
       215.401  
  22639335.387   118970512.44558     -2183.395    22639338.718    92704305.36855
     -1701.348  
  20442819.422   107427741.20559      -987.332    20442821.181    83709935.64558
      -769.352  
  20271022.985   106524944.77159     -1987.382    20271025.216    83006458.41957
     -1548.613  
  22178625.770   116549464.00258      2930.707    22178626.046    90817766.05556
      2283.664  
  23184707.328   121836460.93357      3747.410    23184710.031    94937510.34855
      2920.059  
  23523529.630   123616982.14657      2034.582    23523531.640    96324929.88653
      1585.387  
  23037291.068   121061782.19357     -1976.948    23037294.252    94333867.25256
     -1540.484  
  8  6  4  1 33 30.0000000  0  8G24G29G15G26G21G 9G18G10
  20375580.700   107074398.30449       270.444    20375582.801    83434605.84348
       210.733  
  22645573.382   119003293.23648     -2186.652    22645576.326    92729848.82845
     -1703.886  
  20445644.912   107442590.65949      -991.746    20445646.974    83721506.63948
      -772.793  
  20276704.846   106554802.96249     -1992.668    20276706.715    83029724.55347
     -1552.729  
  22170264.376   116505525.02148      2928.672    22170264.416    90783527.89146
      2282.077  
  23174011.398   121780252.03248      3747.957    23174013.095    94893711.24945
      2920.483  
  23517721.046   123586458.61247      2036.031    23517723.153    96301145.35543
      1586.516  
  23042934.406   121091438.54347     -1976.367    23042937.546    94356976.07046
     -1540.031  
  8  6  4  1 33 45.0000000  0  8G24G29G15G26G21G 9G18G10
  20374822.623   107070415.36149       261.245    20374825.105    83431502.23748
       203.565  
  22651825.008   119036145.75248     -2192.968    22651827.594    92755448.16645
     -1708.808  
  20448488.385   107457533.46149      -999.813    20448490.667    83733150.36748
      -779.077  
  20282406.406   106584764.58349     -2001.280    20282407.994    83053071.27447
     -1559.440  
  22161913.236   116461641.17148      2923.397    22161913.576    90749332.69046
      2277.968  
  23163319.004   121724063.65248      3744.660    23163321.391    94849928.10145
      2917.913  
  23511912.302   123555933.55047      2034.444    23511914.106    96277359.65244
      1585.277  
  23048580.449   121121109.91547     -1979.152    23048583.828    94380096.61746
     -1542.198  
  8  6  4  1 34  0.0000000  0  8G24G29G15G26G21G 9G18G10
  20374086.715   107066548.79549       254.270    20374089.211    83428489.34247
       198.128  
  22658091.128   119069073.71448     -2197.410    22658093.351    92781106.33045
     -1712.270  
  20451350.465   107472573.32349     -1005.499    20451352.561    83744869.75248
      -783.507  
  20288128.165   106614833.06549     -2007.828    20288129.763    83076501.27147
     -1564.542  
  22153573.506   116417816.87148      2920.039    22153574.047    90715183.89946
      2275.351  
  23152631.491   121667899.99048      3743.667    23152633.552    94806164.18845
      2917.140  
  23506104.160   123525411.12247      2034.823    23506105.714    96253575.91244
      1585.573  
  23054230.642   121150800.31947     -1979.964    23054233.825    94403232.00346
     -1542.831  
  8  6  4  1 34 15.0000000  0  8G24G29G15G26G21G 9G18G10
  20373372.304   107062794.91549       246.203    20373374.907    83425564.23348
       191.844  
  22664370.794   119102072.98748     -2202.555    22664373.209    92806820.04645
     -1716.281  
  20454230.242   107487706.21849     -1012.108    20454232.322    83756661.64048
      -788.659  
  20293869.476   106645004.29949     -2015.016    20293871.254    83100011.31147
     -1570.145  
  22145244.585   116374048.87747      2915.668    22145245.366    90681079.03046
      2271.948  
  23141948.179   121611757.64848      3741.902    23141950.083    94762416.92046
      2915.766  
  23500295.718   123494887.29947      2034.480    23500297.495    96229791.16544
      1585.300  
  23059883.444   121180505.83848     -1981.136    23059886.549    94426379.15146
     -1543.746  
  8  6  4  1 34 30.0000000  0  8G24G29G15G26G21G 9G18G10
  20372680.333   107059158.58549       238.519    20372682.831    83422730.73448
       185.854  
  22670664.787   119135147.86748     -2207.511    22670667.288    92832592.65445
     -1720.140  
  20457128.464   107502936.82149     -1018.433    20457130.652    83768529.63048
      -793.585  
  20299631.159   106675282.71149     -2021.996    20299633.054    83123604.85647
     -1575.585  
  22136927.479   116330342.38248      2911.726    22136927.977    90647021.99346
      2268.875  
  23131269.694   121555641.98748      3740.094    23131272.079    94718690.43246
      2914.355  
  23494487.839   123464366.85047      2034.476    23494489.985    96206009.01043
      1585.304  
  23065540.091   121210231.59247     -1982.277    23065543.249    94449542.04746
     -1544.637  
  8  6  4  1 34 45.0000000  0  8G24G29G15G26G21G 9G18G10
  20372010.502   107055638.66249       230.698    20372012.997    83419987.93648
       179.761  
  22676972.746   119168296.66047     -2212.569    22676975.469    92858422.85145
     -1724.082  
  20460045.211   107518263.40049     -1025.026    20460047.303    83780472.42148
      -798.727  
  20305413.081   106705666.50849     -2029.285    20305415.020    83147280.54147
     -1581.266  
  22128621.706   116286696.21848      2907.726    22128622.250    90613011.99246
      2265.758  
  23120596.176   121499551.89848      3738.358    23120598.513    94674983.90246
      2913.004  
  23488680.587   123433848.37647      2034.421    23488682.354    96182228.38544
      1585.262  
  23071200.400   121239976.09047     -1983.805    23071203.244    94472719.56346
     -1545.824  
  8  6  4  1 35  0.0000000  0  8G24G29G15G26G21G 9G18G10
  20371362.719   107052234.50749       223.097    20371365.413    83417335.34648
       173.839  
  22683294.463   119201518.32347     -2217.058    22683297.470    92884309.85945
     -1727.582  
  20462980.018   107533685.03549     -1031.207    20462981.992    83792489.29448
      -803.542  
  20311214.693   106736154.59249     -2035.874    20311216.789    83171037.47447
     -1586.398  
  22120327.377   116243110.09948      2903.796    22120328.157    90579048.78846
      2262.694  
  23109927.325   121443486.98847      3736.890    23109929.978    94631296.97345
      2911.858  
  23482873.558   123403331.23547      2034.519    23482875.025    96158448.84344
      1585.340  
  23076864.038   121269738.64947     -1984.539    23076866.755    94495911.16445
     -1546.398  
  8  6  4  1 35 15.0000000  0  8G24G29G15G26G21G 9G18G10
  20370737.029   107048946.45449       215.352    20370739.716    83414773.22148
       167.804  
  22689629.821   119234812.66847     -2222.090    22689633.199    92910253.51444
     -1731.499  
  20465932.666   107549201.52649     -1037.598    20465934.710    83804580.05748
      -808.520  
  20317036.096   106766746.80049     -2042.940    20317038.219    83194875.56947
     -1591.906  
  22112044.494   116199584.56548      2899.660    22112045.502    90545132.79346
      2259.473  
  23099263.257   121387447.93247      3735.038    23099266.554    94587630.18946
      2910.417  
  23477066.615   123372815.54247      2034.254    23477068.363    96134670.37944
      1585.129  
  23082531.062   121299519.55847     -1986.047    23082533.625    94519117.04846
     -1547.569  
  8  6  4  1 35 30.0000000  0  8G24G29G15G26G21G 9G18G10
  20370133.650   107045775.86149       207.534    20370136.192    83412302.64147
       161.711  
  22695979.500   119268180.61047     -2226.776    22695982.793    92936254.51144
     -1735.156  
  20468903.779   107564814.04949     -1043.937    20468905.528    83816745.65648
      -813.461  
  20322877.777   106797444.10349     -2049.773    20322879.804    83218795.53947
     -1597.230  
  22103773.672   116156121.10448      2895.624    22103774.897    90511265.14446
      2256.327  
  23088604.443   121331436.36147      3733.387    23088607.895    94543984.88746
      2909.132  
  23471260.355   123342302.43947      2034.183    23471261.408    96110893.93044
      1585.073  
  23088201.710   121329319.82847     -1987.417    23088204.251    94542338.03246
     -1548.640  
  8  6  4  1 35 45.0000000  0  8G24G29G15G26G21G 9G18G10
  20369552.330   107042720.69049       199.983    20369554.635    83409921.97947
       155.828  
  22702342.759   119301619.45047     -2231.691    22702345.212    92962310.73945
     -1738.979  
  20471892.604   107580520.18349     -1050.058    20471894.353    83828984.20748
      -818.229  
  20328738.772   106828243.96649     -2056.539    20328740.914    83242795.42847
     -1602.499  
  22095514.043   116112717.80648      2891.542    22095515.533    90477444.42946
      2253.148  
  23077950.365   121275450.49247      3731.687    23077954.411    94500359.52846
      2907.804  
  23465453.945   123311789.82947      2034.421    23465455.037    96087117.90744
      1585.262  
  23093875.757   121359137.58547     -1988.288    23093878.311    94565572.61146
     -1549.319  
  8  6  4  1 36  0.0000000  0  8G24G29G15G26G21G 9G18G10
  20368993.242   107039782.60349       192.129    20368995.649    83407632.55747
       149.707  
  22708719.837   119335130.31647     -2236.249    22708722.105    92988423.08344
     -1742.535  
  20474899.481   107596321.14649     -1056.394    20474900.990    83841296.66348
      -823.168  
  20334619.776   106859147.44549     -2063.390    20334621.679    83266876.05147
     -1607.839  
  22087266.470   116069376.51848      2887.327    22087267.857    90443671.97845
      2249.862  
  23067301.992   121219492.19447      3729.820    23067305.901    94456755.65646
      2906.352  
  23459647.932   123281279.02747      2034.179    23459649.235    96063343.24145
      1585.070  
  23099553.610   121388974.15647     -1989.472    23099556.122    94588821.89146
     -1550.241  
  8  6  4  1 36 15.0000000  0  8G24G29G15G26G21G 9G18G10
  20368456.058   107036959.55449       184.301    20368458.417    83405432.77747
       143.609  
  22715109.981   119368710.83947     -2241.011    22715112.242    93014589.68544
     -1746.250  
  20477923.839   107612214.56749     -1062.816    20477925.518    83853681.13348
      -828.172  
  20340519.948   106890152.15149     -2070.405    20340521.443    83291035.56947
     -1613.309  
  22079030.343   116026095.31548      2883.289    22079031.772    90409946.40146
      2246.715  
  23056658.447   121163559.61247      3727.773    23056662.195    94413171.86546
      2904.753  
  23453841.825   123250768.16647      2034.038    23453843.295    96039568.60844
      1584.965  
  23105234.495   121418827.62447     -1990.769    23105237.372    94612084.31745
     -1551.254  
  8  6  4  1 36 30.0000000  0  8G24G29G15G26G21G 9G18G10
  20367941.172   107034253.99749       176.648    20367943.614    83403324.55647
       137.645  
  22721513.850   119402362.86947     -2245.765    22721516.921    93040812.06045
     -1749.948  
  20480966.256   107628202.60549     -1068.983    20480967.993    83866139.33948
      -832.977  
  20346439.683   106921260.09849     -2076.972    20346441.064    83315275.52247
     -1618.421  
  22070806.293   115982877.17148      2879.055    22070807.491    90376269.94045
      2243.418  
  23046020.316   121107655.70047      3726.007    23046024.272    94369610.38246
      2903.379  
  23448036.151   123220259.54947      2034.090    23448037.605    96015795.68444
      1584.999  
  23110919.086   121448700.38247     -1991.922    23110922.121    94635361.78845
     -1552.148  
  8  6  4  1 36 45.0000000  0  8G24G29G15G26G21G 9G18G10
  20367448.929   107031666.08649       168.745    20367451.089    83401307.99848
       131.488  
  22727931.098   119436086.17146     -2250.688    22727934.652    93067089.90744
     -1753.789  
  20484026.549   107644284.92949     -1075.230    20484028.493    83878671.01148
      -837.843  
  20352378.807   106952470.78349     -2083.977    20352380.258    83339595.53047
     -1623.882  
  22062594.288   115939722.29148      2874.831    22062595.417    90342642.74245
      2240.124  
  23035387.635   121051780.74048      3724.151    23035391.539    94326071.46246
      2901.934  
  23442231.142   123189753.11346      2033.765    23442232.587    95992024.38645
      1584.745  
  23116607.206   121478592.43947     -1993.465    23116610.674    94658654.27445
     -1553.352  
  8  6  4  1 37  0.0000000  0  8G24G29G15G26G21G 9G18G10
  20366978.492   107029194.64449       160.812    20366981.034    83399382.20548
       125.305  
  22734361.363   119469878.97247     -2255.331    22734365.091    93093421.97944
     -1757.410  
  20487104.698   107660460.02349     -1081.351    20487106.167    83891274.97748
      -842.612  
  20358337.164   106983782.56749     -2090.883    20358338.755    83363994.32847
     -1629.262  
  22054394.091   115896629.78248      2870.655    22054395.159    90309064.18145
      2236.871  
  23024760.369   120995933.92548      3722.051    23024764.100    94282554.46846
      2900.296  
  23436426.207   123159247.38347      2033.534    23436427.578    95968253.75145
      1584.570  
  23122298.718   121508502.31647     -1994.558    23122302.079    94681960.65946
     -1554.202  
  8  6  4  1 37 15.0000000  0  8G24G29G15G26G21G 9G18G10
  20366530.512   107026840.21249       153.128    20366532.903    83397547.58648
       119.315  
  22740805.322   119503741.48847     -2259.964    22740808.185    93119808.37144
     -1761.016  
  20490200.351   107676728.10449     -1087.597    20490201.918    83903951.40548
      -847.479  
  20364314.555   107015195.53049     -2097.559    20364316.225    83388471.97347
     -1634.465  
  22046205.992   115853600.24748      2866.688    22046206.802    90275534.66745
      2233.776  
  23014138.883   120940116.10948      3720.230    23014142.201    94239060.07045
      2898.879  
  23430621.581   123128743.14646      2033.929    23430622.948    95944484.16944
      1584.878  
  23127993.662   121538430.57447     -1995.930    23127997.075    94705281.37045
     -1555.273  
  8  6  4  1 37 30.0000000  0  8G24G29G15G26G21G 9G18G10
  20366104.405   107024601.38049       145.379    20366106.936    83395803.04248
       113.277  
  22747262.295   119537671.70247     -2264.273    22747264.741    93146247.48244
     -1764.371  
  20493313.291   107693087.40049     -1093.910    20493314.731    83916698.91748
      -852.402  
  20370310.965   107046707.90849     -2104.207    20370313.124    83413027.05248
     -1639.644  
  22038029.516   115810632.60648      2862.347    22038030.414    90242053.38246
      2230.398  
  23003522.479   120884326.02947      3718.352    23003525.295    94195587.30346
      2897.414  
  23424816.592   123098238.63147      2033.659    23424818.116    95920714.44345
      1584.667  
  23133692.055   121568375.83147     -1997.004    23133695.020    94728615.31645
     -1556.108  
  8  6  4  1 37 45.0000000  0  8G24G29G15G26G21G 9G18G10
  20365700.941   107022481.31849       137.351    20365703.342    83394151.05048
       107.023  
  22753732.591   119571672.21347     -2269.063    22753734.949    93172741.40444
     -1768.105  
  20496444.142   107709540.78849     -1100.027    20496445.750    83929519.72948
      -857.168  
  20376327.165   107078322.37849     -2110.961    20376329.174    83437661.70947
     -1644.906  
  22029865.635   115767730.21648      2858.198    22029866.170    90208622.95045
      2227.164  
  22992911.718   120828567.29348      3716.089    22992914.394    94152138.93646
      2895.652  
  23419011.952   123067736.79047      2033.543    23419013.703    95896946.78045
      1584.573  
  23139394.595   121598341.10047     -1998.348    23139396.705    94751964.85745
     -1557.156  
  8  6  4  1 38  0.0000000  0  8G24G29G15G26G21G 9G18G10
  20365319.984   107020479.28249       129.526    20365322.112    83392591.00847
       100.925  
  22760215.663   119605741.70446     -2273.453    22760218.408    93199289.02344
     -1771.522  
  20499592.719   107726086.95749     -1106.202    20499594.396    83942412.84448
      -861.980  
  20382362.427   107110037.48749     -2117.512    20382364.472    83462374.77948
     -1650.011  
  22021713.867   115724892.44748      2853.797    22021714.413    90175242.86546
      2223.729  
  22982307.081   120772839.20648      3714.038    22982309.611    94108714.46545
      2894.054  
  23413207.893   123037236.72546      2033.339    23413209.757    95873180.52945
      1584.422  
  23145100.376   121628325.49547     -1999.480    23145102.617    94775329.29844
     -1558.038  
  8  6  4  1 38 15.0000000  0  8G24G29G15G26G21G 9G18G10
  20364961.307   107018594.23249       121.723    20364963.325    83391122.14547
        94.843  
  22766711.844   119639878.67847     -2278.155    22766714.580    93225889.28944
     -1775.190  
  20502758.788   107742724.70049     -1112.176    20502760.621    83955377.31948
      -866.632  
  20388416.482   107141851.82149     -2124.219    20388418.759    83487165.16647
     -1655.238  
  22013574.389   115682118.42548      2849.573    22013574.799    90141912.44645
      2220.445  
  22971708.002   120717141.10548      3712.339    22971710.693    94065313.35746
      2892.730  
  23407403.977   123006737.37447      2033.187    23407405.702    95849414.77344
      1584.292  
  23150809.825   121658328.00847     -2000.788    23150811.670    94798707.85245
     -1559.059  
  8  6  4  1 38 30.0000000  0  8G24G29G15G26G21G 9G18G10
  20364624.499   107016824.73649       114.042    20364626.693    83389743.31948
        88.862  
  22773220.815   119674081.27246     -2282.183    22773223.006    93252540.67644
     -1778.327  
  20505942.023   107759452.05449     -1118.145    20505943.737    83968411.61648
      -871.284  
  20394489.075   107173763.60749     -2130.854    20394491.361    83512031.48647
     -1660.409  
  22005446.783   115639406.90848      2845.226    22005447.097    90108630.76945
      2217.054  
  22961114.144   120661471.88348      3710.362    22961116.976    94021934.76145
      2891.187  
  23401600.044   122976237.12947      2033.344    23401601.502    95825648.32544
      1584.418  
  23156522.237   121688346.90547     -2001.930    23156524.456    94822099.19645
     -1559.949  
  8  6  4  1 38 45.0000000  0  8G24G29G15G26G21G 9G18G10
  20364310.304   107015173.12949       106.261    20364312.607    83388456.34648
        82.797  
  22779742.600   119708351.48547     -2287.198    22779744.186    93279244.72644
     -1782.237  
  20509142.601   107776271.04949     -1124.351    20509144.387    83981517.33748
      -876.120  
  20400580.577   107205774.50949     -2137.245    20400583.019    83536975.05648
     -1665.391  
  21997331.600   115596760.86548      2840.827    21997332.110    90075400.06745
      2213.628  
  22950526.675   120605834.20048      3708.305    22950529.443    93978580.73946
      2889.585  
  23395796.276   122945738.12146      2033.129    23395797.518    95801882.91745
      1584.254  
  23162238.435   121718384.35147     -2002.972    23162240.667    94845505.00045
     -1560.762  
  8  6  4  1 39  0.0000000  0  8G24G29G15G26G21G 9G18G10
  20364018.639   107013640.60549        98.387    20364021.090    83387262.16447
        76.660  
  22786277.341   119742689.96546     -2291.441    22786279.093    93306002.01445
     -1785.542  
  20512360.727   107793182.50849     -1130.386    20512362.612    83994695.08648
      -880.824  
  20406691.181   107237885.26349     -2143.749    20406693.468    83561996.41847
     -1670.456  
  21989229.112   115554181.37948      2836.702    21989229.493    90042221.29745
      2210.417  
  22939945.380   120550229.43348      3706.019    22939948.244    93935252.37446
      2887.804  
  23389992.864   122915241.54646      2033.425    23389994.296    95778119.34844
      1584.483  
  23167958.162   121748441.72147     -2004.194    23167960.427    94868926.33644
     -1561.715  
  8  6  4  1 39 15.0000000  0  8G24G29G15G26G21G 9G18G10
  20363749.974   107012228.04549        90.355    20363752.298    83386161.47448
        70.402  
  22792824.967   119777097.16246     -2296.300    22792827.006    93332812.81044
     -1789.327  
  20515596.791   107810187.07649     -1136.476    20515598.536    84007945.40648
      -885.570  
  20412820.865   107270096.47149     -2150.608    20412823.187    83587096.06447
     -1675.801  
  21981139.258   115511669.65848      2832.116    21981139.754    90009095.26545
      2206.839  
  22929370.702   120494658.87248      3703.749    22929373.442    93891950.64246
      2886.034  
  23384190.200   122884748.37347      2032.941    23384191.495    95754358.47344
      1584.105  
  23173681.710   121778519.66847     -2005.676    23173683.910    94892363.66645
     -1562.866  
  8  6  4  1 39 30.0000000  0  8G24G29G15G26G21G 9G18G10
  20363503.349   107010932.89449        82.352    20363505.969    83385152.26848
        64.167  
  22799384.356   119811569.79645     -2300.448    22799387.322    93359674.58445
     -1792.563  
  20518849.728   107827281.74949     -1142.522    20518851.435    84021265.94948
      -890.280  
  20418968.997   107302404.93749     -2157.082    20418971.153    83612271.48747
     -1680.847  
  21973061.940   115469223.31948      2827.546    21973062.355    89976020.22745
      2203.280  
  22918802.210   120439120.16848      3701.608    22918804.814    93848673.74846
      2884.366  
  23378387.530   122854255.76046      2033.144    23378388.858    95730598.02145
      1584.266  
  23179408.839   121808615.65447     -2006.948    23179411.031    94915815.05045
     -1563.858  
  8  6  4  1 39 45.0000000  0  8G24G29G15G26G21G 9G18G10
  20363279.537   107009756.22449        74.422    20363282.162    83384235.37848
        57.987  
  22805956.071   119846108.45544     -2304.972    22805959.844    93386587.86743
     -1796.082  
  20522120.159   107844467.26249     -1148.781    20522121.882    84034657.26048
      -895.155  
  20425135.863   107334811.19249     -2163.777    20425137.907    83637523.12448
     -1686.063  
  21964997.349   115426843.63748      2823.073    21964997.746    89942997.06345
      2199.793  
  22908239.931   120383614.48648      3699.198    22908242.587    93805422.57046
      2882.488  
  23372585.219   122823764.47546      2032.613    23372586.484    95706838.55044
      1583.851  
  23185139.764   121838730.43047     -2008.266    23185141.824    94939281.12945
     -1564.886  
  8  6  4  1 40  0.0000000  0  8G24G29G15G26G21G 9G18G10
  20363078.216   107008698.27349        66.414    20363080.709    83383410.99248
        51.746  
  22812541.315   119880712.98855     -2309.184    22812545.193    93413554.36354
     -1799.367  
  20525407.636   107861743.60349     -1154.941    20525409.307    84048119.34048
      -899.957  
  20431321.164   107367315.04049     -2170.378    20431322.901    83662850.79748
     -1691.207  
  21956945.432   115384530.99448      2818.383    21956945.879    89910026.20346
      2196.137  
  22897683.967   120328142.42648      3696.750    22897686.665    93762197.61746
      2880.581  
  23366783.056   122793274.56045      2032.815    23366784.633    95683080.25443
      1584.007  
  23190874.077   121868864.10147     -2009.843    23190876.076    94962761.90045
     -1566.112  
  8  6  4  1 40 15.0000000  0  7G24G15G26G21G 9G18G10
  20362898.928   107007756.20549        58.894    20362901.456    83382676.91948
        45.886  
  20528711.905   107879107.21549     -1160.453    20528713.355    84061649.42848
      -904.253  
  20437524.315   107399913.16649     -2176.257    20437526.081    83688251.93947
     -1695.788  
  21948905.850   115342282.76748      2814.354    21948906.078    89877105.49945
      2192.999  
  22887133.749   120272701.56348      3694.960    22887136.639    93718996.99246
      2879.188  
  23360980.736   122762783.13145      2033.195    23360982.200    95659320.69543
      1584.304  
  23196611.254   121899013.85947     -2010.659    23196613.780    94986255.18245
     -1566.750  
  8  6  4  1 40 30.0000000  0  7G24G15G26G21G 9G18G10
  20362742.670   107006935.46949        50.477    20362745.266    83382037.37848
        39.328  
  20532033.642   107896563.47049     -1167.046    20532035.070    84075251.70348
      -909.390  
  20443746.107   107432610.77749     -2183.234    20443748.327    83713730.59147
     -1701.227  
  21940879.494   115300104.82648      2809.190    21940879.831    89844239.57845
      2188.977  
  22876590.688   120217297.74648      3692.160    22876593.816    93675825.17846
      2877.004  
  23355178.596   122732293.73956      2032.522    23355180.437    95635562.29353
      1583.776  
  23202353.011   121929185.21747     -2012.433    23202355.257    95009765.31945
     -1568.132  
  8  6  4  1 40 45.0000000  0  7G24G15G26G21G 9G18G10
  20362610.256   107006239.93949        42.690    20362612.781    83381495.40648
        33.261  
  20535373.651   107914115.80449     -1172.824    20535375.032    84088928.84848
      -913.891  
  20449987.642   107465410.86149     -2189.578    20449990.035    83739289.09247
     -1706.167  
  21932867.270   115258001.05548      2804.675    21932867.720    89811431.45045
      2185.457  
  22866055.523   120161934.95548      3690.172    22866058.601    93632685.35846
      2875.457  
  23349378.334   122701814.15945      2032.214    23349380.981    95611812.04944
      1583.547  
  23208099.335   121959381.97747     -2013.304    23208101.363    95033295.25545
     -1568.812  
  8  6  4  1 41  0.0000000  0  8G24G29G15G26G21G 9G18G10
  20362498.964   107005654.62649        35.027    20362501.503    83381039.30248
        27.288  
  22839005.296   120019775.74155     -2325.887    22839009.532    93521914.84654
     -1812.382  
  20538729.121   107931748.85349     -1178.520    20538730.398    84102668.88748
      -918.332  
  20456246.062   107498298.17049     -2195.765    20456248.120    83764915.56047
     -1710.988  
  21924866.353   115215956.64348      2800.823    21924867.001    89778669.62345
      2182.456  
  22855525.373   120106598.54848      3688.074    22855528.424    93589566.07346
      2873.820  
  23343577.534   122671322.09155      2031.969    23343579.906    95588041.83554
      1583.348  
  23213847.614   121989588.91847     -2014.316    23213849.854    95056833.11545
     -1569.605  
  8  6  4  1 41 15.0000000  0  8G24G29G15G26G21G 9G18G10
  20362409.540   107005184.29749        27.312    20362411.947    83380672.80648
        21.276  
  22845651.226   120054696.27744     -2330.188    22845655.899    93549125.60745
     -1815.733  
  20542100.963   107949467.16149     -1184.262    20542102.035    84116475.36448
      -922.804  
  20462521.857   107531277.07249     -2201.874    20462523.806    83790613.41447
     -1715.749  
  21916877.684   115173976.65348      2796.261    21916878.505    89745957.91246
      2178.902  
  22845001.157   120051293.64248      3685.741    22845004.227    93546471.37046
      2872.003  
  23337776.778   122640832.22446      2032.421    23337778.019    95564283.55044
      1583.702  
  23219598.563   122019810.82747     -2015.680    23219600.950    95080382.67646
     -1570.663  
  8  6  4  1 41 30.0000000  0  7G24G15G26G21G 9G18G10
  20362343.677   107004838.55849        18.895    20362346.247    83380403.39848
        14.718  
  20545490.459   107967279.89349     -1190.565    20545491.699    84130355.41148
      -927.719  
  20468816.617   107564356.63749     -2208.859    20468818.487    83816389.70347
     -1721.190  
  21908903.034   115132070.92547      2791.214    21908904.381    89713304.11046
      2174.969  
  22834484.622   119996029.99948      3682.695    22834487.714    93503408.81946
      2869.628  
  23331976.050   122610349.06945      2031.765    23331976.523    95540530.42244
      1583.187  
  23225353.818   122050057.27247     -2017.116    23225356.742    95103951.30846
     -1571.780  
  8  6  4  1 41 45.0000000  0  7G24G15G26G21G 9G18G10
  20362300.801   107004613.33549        10.711    20362303.233    83380227.89147
         8.343  
  20548897.312   107985182.46649     -1196.765    20548898.507    84144305.46948
      -932.547  
  20475129.871   107597532.32149     -2215.026    20475131.633    83842240.88747
     -1726.000  
  21900941.946   115090235.66047      2786.499    21900943.442    89680705.21146
      2171.296  
  22823975.624   119940804.02948      3680.257    22823978.662    93460375.60446
      2867.729  
  23326176.001   122579868.32746      2031.854    23326175.716    95516779.24341
      1583.265  
  23231113.086   122080324.05347     -2018.440    23231116.172    95127535.80445
     -1572.816  
  8  6  4  1 42  0.0000000  0  6G24G15G26G21G 9G10
  20362281.173   107004510.53449         1.609    20362283.561    83380147.80447
         1.250  
  20552321.461   108003176.74049     -1203.777    20552322.674    84158326.98748
      -938.011  
  20481461.606   107630805.65849     -2222.499    20481463.535    83868168.15847
     -1731.820  
  21892994.804   115048473.11448      2780.543    21892996.361    89648163.05246
      2166.664  
  22813473.837   119885617.98648      3676.569    22813477.011    93417373.53446
      2864.854  
  23236876.595   122110612.93348     -2020.891    23236879.979    95151137.56545
     -1574.722  
  8  6  4  1 42 15.0000000  0  6G24G15G26G21G 9G10
  20362284.317   107004527.93149        -3.844    20362286.951    83380161.37247
        -3.000  
  20555762.610   108021259.97249     -1207.136    20555763.736    84172417.80848
      -940.628  
  20487811.256   107664173.88549     -2226.562    20487813.340    83894169.38947
     -1734.987  
  21885061.081   115006781.24548      2778.617    21885062.289    89615675.85745
      2165.152  
  22802979.610   119830469.88848      3676.546    22802982.655    93374400.99746
      2864.840  
  23242644.402   122140921.55948     -2020.108    23242647.629    95174754.65946
     -1574.113  
  8  6  4  1 42 30.0000000  0  6G24G15G26G21G 9G10
  20362309.477   107004659.27249       -12.660    20362311.866    83380263.70848
        -9.867  
  20559219.513   108039425.49849     -1213.941    20559220.636    84186572.76648
      -945.930  
  20494177.799   107697630.20149     -2233.438    20494179.904    83920239.24847
     -1740.343  
  21877139.560   114965153.96548      2773.011    21877140.970    89583239.00446
      2160.784  
  22792491.453   119775353.62948      3673.262    22792494.630    93331453.28546
      2862.277  
  23248414.623   122171243.62147     -2021.792    23248417.857    95198382.21645
     -1575.426  
  8  6  4  1 42 45.0000000  0  7G24G15G26G21G 9G18G10
  20362357.228   107004910.64649       -20.914    20362359.893    83380459.59048
       -16.301  
  20562693.200   108057679.09849     -1219.773    20562694.363    84200796.35148
      -950.477  
  20500561.885   107731180.23749     -2239.918    20500564.318    83946382.13747
     -1745.394  
  21869231.654   114923597.63848      2767.925    21869232.969    89550857.43646
      2156.819  
  22782010.509   119720275.46048      3670.508    22782013.607    93288535.24946
      2860.132  
  23302976.839   122457970.72155      2031.690    23302975.949    95421794.82951
      1583.137  
  23254188.550   122201585.06348     -2023.409    23254191.302    95222024.91445
     -1576.687  
  8  6  4  1 43  0.0000000  0  6G24G15G26G21G 9G10
  20362427.279   107005278.23449       -28.538    20362430.147    83380746.01848
       -22.242  
  20566182.565   108076016.67849     -1225.581    20566183.898    84215085.38148
      -955.004  
  20506963.012   107764819.72949     -2245.879    20506965.578    83972594.72647
     -1750.038  
  21861336.610   114882108.62048      2763.328    21861337.988    89518528.37346
      2153.237  
  22771536.243   119665232.03548      3668.164    22771539.106    93245644.29246
      2858.305  
  23259965.475   122231942.16548     -2024.577    23259967.897    95245679.79545
     -1577.598  
  8  6  4  1 43 15.0000000  0  7G24G15G26G21G 9G18G10
  20362521.174   107005771.40549       -35.858    20362523.957    83381130.30948
       -27.944  
  20569689.743   108094447.49149     -1230.578    20569691.147    84229447.07148
      -958.895  
  20513383.169   107798557.73049     -2251.140    20513385.846    83998884.09147
     -1754.141  
  21853456.300   114840696.59548      2759.570    21853457.788    89486259.26846
      2150.179  
  22761070.325   119610233.26948      3666.366    22761073.227    93202788.11246
      2856.905  
  23291379.185   122397020.66556      2032.530    23291378.521    95374311.48554
      1583.789  
  23265747.174   122262324.60348     -2025.055    23265749.613    95269354.42446
     -1577.968  
  8  6  4  1 43 30.0000000  0  6G24G15G26G21G 9G10
  20362637.847   107006384.30849       -44.562    20362640.444    83381607.90148
       -34.727  
  20573213.202   108112964.92149     -1237.128    20573214.784    84243876.21448
      -963.999  
  20519820.919   107832387.89449     -2258.022    20519823.312    84025245.25047
     -1759.503  
  21845589.526   114799355.75948      2754.086    21845590.990    89454045.60946
      2146.038  
  22750611.713   119555273.35848      3663.078    22750614.734    93159962.24045
      2854.343  
  23271532.662   122292726.14148     -2027.043    23271534.881    95293043.94246
     -1579.516  
  8  6  4  1 43 45.0000000  0  7G24G15G26G21G 9G18G10
  20362777.340   107007117.31749       -54.784    20362780.112    83382179.06648
       -42.690  
  20576753.432   108131569.11449     -1244.969    20576754.861    84258372.98948
      -970.108  
  20526276.062   107866309.93249     -2266.414    20526278.562    84051678.01347
     -1766.039  
  21837736.428   114758086.67148      2747.042    21837737.863    89421887.89746
      2140.551  
  22740160.638   119500353.02748      3658.398    22740163.526    93117167.16546
      2850.694  
  23279780.809   122336077.75755      2029.776    23279785.483    95326834.05751
      1581.629  
  23277321.370   122323146.88248     -2030.499    23277323.925    95316748.38945
     -1582.210  
  8  6  4  1 44  0.0000000  0  6G24G15G26G21G 9G10
  20362938.700   107007965.58349       -58.984    20362941.600    83382840.05148
       -45.965  
  20580309.022   108150254.98949     -1247.008    20580310.802    84272933.41148
      -971.699  
  20532747.654   107900318.59348     -2268.761    20532750.270    84078178.26247
     -1767.871  
  21829896.231   114716885.31248      2745.929    21829897.601    89389782.93246
      2139.684  
  22729716.045   119445467.85047      3659.273    22729719.097    93074399.50346
      2851.379  
  23283113.243   122353582.00248     -2028.116    23283115.400    95340464.07345
     -1580.354  
  8  6  4  1 44 15.0000000  0  6G24G15G26G21G 9G10
  20363123.291   107008935.26949       -68.011    20363125.997    83383595.65648
       -52.999  
  20583881.561   108169028.34049     -1253.828    20583883.212    84287562.01748
      -977.011  
  20539236.952   107934419.80349     -2275.766    20539239.584    84104750.63747
     -1773.328  
  21822069.776   114675757.60748      2740.116    21822071.384    89357735.38146
      2135.124  
  22719279.646   119390624.36148      3655.440    22719282.660    93031664.32146
      2848.395  
  23288908.825   122384037.61748     -2030.418    23288910.588    95364195.71245
     -1582.147  
  8  6  4  1 44 30.0000000  0  6G24G15G26G21G 9G10
  20363331.127   107010027.70549       -77.137    20363333.674    83384446.90447
       -60.108  
  20587470.906   108187890.13349     -1260.625    20587472.316    84302259.52048
      -982.308  
  20545744.159   107968614.31549     -2282.991    20545746.584    84131395.71647
     -1778.957  
  21814257.522   114634704.87348      2734.108    21814259.188    89325746.24146
      2130.473  
  22708851.396   119335824.06847      3651.910    22708854.538    92988962.81146
      2845.641  
  23294708.590   122414515.02647     -2032.570    23294710.275    95387944.33645
     -1583.823  
  8  6  4  1 44 45.0000000  0  6G24G15G26G21G 9G10
  20363562.485   107011243.72149       -85.023    20363565.041    83385394.43848
       -66.253  
  20591077.032   108206840.85649     -1266.120    20591078.639    84317026.31048
      -986.590  
  20552269.023   108002902.52149     -2288.996    20552271.237    84158113.79747
     -1783.637  
  21806459.882   114593728.68948      2729.328    21806461.444    89293816.75247
      2126.745  
  22698431.553   119281068.20548      3649.078    22698434.855    92946295.95146
      2843.433  
  23300512.540   122445015.08348     -2034.277    23300514.296    95411710.61345
     -1585.156  
  8  6  4  1 45  0.0000000  0  6G24G15G26G21G 9G10
  20363816.492   107012578.97049       -93.308    20363819.033    83386434.90047
       -72.711  
  20594699.346   108225875.80849     -1271.976    20594700.816    84331858.73648
      -991.152  
  20558810.698   108037279.56749     -2295.175    20558813.055    84184901.10247
     -1788.452  
  21798676.085   114552824.83848      2724.210    21798677.722    89261943.61947
      2122.809  
  22688019.495   119226352.65848      3646.108    22688023.081    92903660.47646
      2841.121  
  23306319.807   122475533.38247     -2035.555    23306321.936    95435491.08545
     -1586.147  
  8  6  4  1 45 15.0000000  0  6G24G15G26G21G 9G10
  20364093.781   107014035.04349      -101.019    20364096.185    83387569.51147
       -78.718  
  20598338.041   108244996.12349     -1277.332    20598339.346    84346757.68848
      -995.327  
  20565369.562   108071746.50249     -2300.659    20565371.641    84211758.44847
     -1792.726  
  21790906.735   114511995.09648      2719.683    21790908.070    89230128.25546
      2119.198  
  22677615.637   119171679.16948      3643.319    22677618.992    92861057.78646
      2838.949  
  23312130.780   122506071.15847     -2036.429    23312133.087    95459286.74546
     -1586.832  
  8  6  4  1 45 30.0000000  0  7G24G15G26G21G 9G18G10
  20364394.147   107015613.22449      -108.995    20364396.563    83388799.25847
       -84.934  
  20601992.835   108264202.94749     -1282.960    20601994.489    84361724.04648
      -999.715  
  20571945.807   108106304.24949     -2306.570    20571947.588    84238686.57247
     -1797.332  
  21783151.375   114471240.96948      2714.762    21783152.675    89198371.77447
      2115.395  
  22667219.969   119117049.56548      3641.117    22667223.573    92818489.28146
      2837.230  
  23239200.391   122122824.65954      2030.917    23239201.871    95160652.92155
      1582.531  
  23317945.688   122536630.01947     -2037.473    23317948.342    95483098.83646
     -1587.645  
  8  6  4  1 45 45.0000000  0  6G24G15G26G21G 9G10
  20364716.907   107017309.43349      -117.089    20364719.142    83390120.97748
       -91.242  
  20605663.486   108283491.59649     -1288.761    20605665.037    84376754.16948
     -1004.234  
  20578538.321   108140948.36049     -2312.484    20578540.073    84265681.97647
     -1801.938  
  21775410.011   114430559.01448      2709.672    21775411.278    89166671.57746
      2111.448  
  22656832.199   119062460.15348      3637.887    22656835.572    92775952.09246
      2834.714  
  23323763.788   122567205.49647     -2038.941    23323766.843    95506923.87346
     -1588.788  
  8  6  4  1 46  0.0000000  0  8G24G29G15G26G21G 9G18G10
  20365063.059   107019128.07149      -124.999    20365065.330    83391538.09047
       -97.406  
  22974143.458   120729934.70155     -2405.684    22974143.036    94075277.23754
     -1874.563  
  20609350.558   108302866.35349     -1294.210    20609351.892    84391851.38148
     -1008.480  
  20585147.922   108175682.73848     -2318.273    20585150.030    84292747.70847
     -1806.449  
  21767682.951   114389953.38348      2704.934    21767684.187    89135030.80547
      2107.737  
  22646452.792   119007915.68948      3635.141    22646455.822    92733449.93545
      2832.573  
  23227608.893   122061905.42754      2031.031    23227609.175    95113168.04755
      1582.621  
  23329586.256   122597802.05347     -2040.144    23329589.217    95530765.30645
     -1589.727  
  8  6  4  1 46 15.0000000  0  7G24G29G15G26G21G 9G10
  20365432.460   107021069.09649      -131.870    20365434.587    83393050.57247
      -102.761  
  22981018.512   120766060.19746     -2408.797    22981018.894    94103426.94645
     -1876.987  
  20613053.764   108322326.86649     -1298.706    20613055.113    84407015.41848
     -1011.983  
  20591774.759   108210506.81349     -2323.004    20591777.000    84319883.35547
     -1810.136  
  21759970.510   114349424.42048      2701.007    21759971.814    89103449.83347
      2104.679  
  22636081.921   118953416.30148      3633.523    22636084.714    92690982.88945
      2831.312  
  23335412.514   122628419.77647     -2040.238    23335415.646    95554623.24345
     -1589.800  
  8  6  4  1 46 30.0000000  0  8G24G29G15G26G21G 9G18G10
  20365823.335   107023123.03249      -141.078    20365825.509    83394651.05448
      -109.934  
  22987902.333   120802233.23445     -2413.715    22987901.897    94131613.69245
     -1880.824  
  20616771.548   108341863.32849     -1305.331    20616772.760    84422238.62748
     -1017.144  
  20598416.795   108245410.63549     -2329.854    20598418.913    84347081.12847
     -1815.476  
  21752270.819   114308962.92548      2694.714    21752272.320    89071921.41047
      2099.773  
  22625717.748   118898952.73748      3629.371    22625720.432    92648543.76345
      2828.078  
  23216016.692   122000993.52956      2030.304    23216015.639    95065704.98854
      1582.042  
  23341240.997   122659048.91447     -2042.757    23341244.059    95578490.09245
     -1591.761  
  8  6  4  1 46 45.0000000  0  8G24G29G15G26G21G 9G18G10
  20366238.801   107025307.32449      -149.254    20366241.149    83396353.08947
      -116.304  
  22994796.771   120838470.81245     -2417.233    22994797.753    94159850.69645
     -1883.565  
  20620506.855   108361492.84249     -1310.995    20620508.193    84437534.35048
     -1021.558  
  20605077.326   108280411.24249     -2335.741    20605079.229    84374354.32247
     -1820.062  
  21744587.587   114268586.61448      2689.793    21744588.912    89040459.35847
      2095.937  
  22615363.787   118844542.74048      3626.511    22615366.530    92606146.38846
      2825.851  
  23210222.435   121970532.63054      2030.237    23210222.778    95041982.03454
      1581.999  
  23347075.181   122689706.78747     -2043.941    23347078.030    95602379.32045
     -1592.684  
  8  6  4  1 47  0.0000000  0  8G24G29G15G26G21G 9G18G10
  20366676.998   107027610.28149      -157.918    20366679.337    83398147.58447
      -123.055  
  23001701.574   120874761.01546     -2421.421    23001703.907    94188128.77145
     -1886.823  
  20624257.784   108381203.23149     -1317.206    20624259.013    84452893.07948
     -1026.398  
  20611753.837   108315496.67349     -2342.241    20611755.770    84401693.60947
     -1825.128  
  21736918.186   114228283.73148      2683.964    21736919.398    89009054.51346
      2091.397  
  22605017.854   118790175.09047      3622.710    22605020.483    92563781.99446
      2822.886  
  23204427.564   121940080.68945      2029.835    23204428.516    95018253.18645
      1581.688  
  23352912.419   122720381.77347     -2046.070    23352915.076    95626281.89345
     -1594.344  
  8  6  4  1 47 15.0000000  0  8G24G29G15G26G21G 9G18G10
  20367139.049   107030038.75049      -165.211    20367141.458    83400039.89548
      -128.738  
  23008618.035   120911110.01245     -2424.425    23008621.291    94216452.64745
     -1889.168  
  20628025.038   108401000.87849     -1321.891    20628026.193    84468319.83348
     -1030.047  
  20618447.874   108350673.13749     -2347.219    20618449.621    84429103.84047
     -1829.004  
  21729264.115   114188061.50548      2679.664    21729265.206    88977712.53146
      2088.046  
  22594681.153   118735857.07947      3620.438    22594684.255    92521456.27346
      2821.116  
  23198634.471   121909641.21756      2030.206    23198634.241    94994532.66155
      1581.977  
  23358754.239   122751080.80747     -2046.672    23358756.999    95650203.21346
     -1594.813  
  8  6  4  1 47 30.0000000  0  8G24G29G15G26G21G 9G18G10
  20367623.051   107032581.04149      -175.156    20367625.363    83402020.90448
      -136.488  
  23015541.919   120947483.51954     -2429.816    23015544.831    94244820.82351
     -1893.379  
  20631806.580   108420873.95449     -1329.188    20631808.034    84483805.34348
     -1035.734  
  20625156.640   108385928.47249     -2354.789    20625158.625    84456575.52947
     -1834.902  
  21721623.216   114147908.87348      2672.566    21721624.304    88946424.78446
      2082.516  
  22584351.991   118681577.15248      3615.897    22584355.076    92479160.23245
      2817.578  
  23192838.952   121879188.46545      2028.753    23192839.753    94970803.20245
      1580.839  
  23364598.551   122781792.06547     -2049.555    23364601.443    95674134.04646
     -1597.058  
  8  6  4  1 47 45.0000000  0  8G24G29G15G26G21G 9G18G10
  20368130.985   107035250.72649      -181.901    20368133.604    83404101.15848
      -141.746  
  23022481.491   120983938.71446     -2431.851    23022482.744    94273227.38545
     -1894.952  
  20635605.095   108440835.65749     -1333.444    20635606.505    84499359.91248
     -1039.050  
  20631882.903   108421275.84348     -2359.210    20631884.900    84484118.93947
     -1838.347  
  21713998.311   114107839.25848      2668.914    21713999.386    88915201.70947
      2079.671  
  22574032.751   118627349.15248      3613.866    22574035.503    92436904.68346
      2815.996  
  23187044.374   121848742.78246      2029.866    23187045.647    94947079.36844
      1581.710  
  23370447.725   122812529.02447     -2049.538    23370450.471    95698084.93246
     -1597.047  
  8  6  4  1 48  0.0000000  0  8G24G29G15G26G21G 9G18G10
  20368661.095   107038036.50349      -189.887    20368663.559    83406271.89448
      -147.968  
  23029428.372   121020442.00746     -2435.352    23029428.383    94301671.49144
     -1897.680  
  20639418.299   108460874.49249     -1338.652    20639419.730    84514974.58848
     -1043.108  
  20638624.499   108456703.57749     -2364.769    20638626.665    84511724.96447
     -1842.679  
  21706386.928   114067841.91848      2663.687    21706388.145    88884034.94946
      2075.597  
  22563721.355   118573162.21148      3610.949    22563723.990    92394681.10145
      2813.723  
  23181250.257   121818293.40146      2029.754    23181251.205    94923352.56845
      1581.625  
  23376299.618   122843280.36447     -2050.718    23376302.347    95722046.98246
     -1597.965  
  8  6  4  1 48 15.0000000  0  8G24G29G15G26G21G 9G18G10
  20369214.385   107040944.87049      -198.070    20369217.272    83408538.16048
      -154.344  
  23036385.437   121056999.38247     -2439.151    23036385.193    94330157.74641
     -1900.641  
  20643247.277   108480996.59649     -1344.316    20643248.808    84530654.14848
     -1047.522  
  20645382.581   108492217.72449     -2370.534    20645385.070    84539398.31447
     -1847.171  
  21698790.890   114027923.56448      2658.508    21698791.934    88852929.73646
      2071.563  
  22553419.232   118519023.31748      3607.539    22553421.258    92352494.95046
      2811.066  
  23175456.143   121787846.19046      2029.245    23175457.442    94899627.48544
      1581.226  
  23382155.344   122874052.50647     -2052.344    23382158.285    95746025.25745
     -1599.229  
  8  6  4  1 48 30.0000000  0  8G24G29G15G26G21G 9G18G10
  20369791.598   107043978.02049      -206.313    20369794.317    83410901.65948
      -160.766  
  23043352.520   121093612.74547     -2442.710    23043352.658    94358687.63342
     -1903.414  
  20647092.534   108501203.77749     -1350.180    20647093.922    84546399.99948
     -1052.090  
  20652157.560   108527820.04549     -2376.292    20652160.074    84567140.35747
     -1851.660  
  21691210.396   113988086.61548      2653.323    21691211.097    88821887.97346
      2067.522  
  22543126.879   118464935.10148      3604.113    22543128.884    92310348.30546
      2808.398  
  23169662.902   121757403.28147      2029.460    23169664.370    94875905.76044
      1581.398  
  23388015.336   122904847.53847     -2053.765    23388018.273    95770021.39746
     -1600.340  
  8  6  4  1 48 45.0000000  0  8G24G29G15G26G21G 9G18G10
  20370392.078   107047134.62649      -214.480    20370395.013    83413361.34548
      -167.129  
  23050329.860   121130280.00746     -2445.976    23050330.754    94387259.51745
     -1905.956  
  20650953.800   108521494.27349     -1355.319    20650955.206    84562210.78048
     -1056.097  
  20658948.744   108563508.76749     -2382.116    20658951.313    84594949.75247
     -1856.198  
  21683645.046   113948329.80449      2647.948    21683645.632    88790908.66046
      2063.335  
  22532843.774   118410896.36648      3601.121    22532845.706    92268240.22446
      2806.066  
  23163870.238   121726963.47347      2029.227    23163871.775    94852186.36545
      1581.203  
  23393879.306   122935664.19046     -2055.148    23393882.335    95794034.34246
     -1601.417  
  8  6  4  1 49  0.0000000  0  8G24G29G15G26G21G 9G18G10
  20371015.753   107050412.56349      -222.523    20371018.623    83415915.57947
      -173.397  
  23057316.124   121166998.63546     -2449.452    23057317.702    94415871.43443
     -1908.664  
  20654830.251   108541865.75649     -1360.839    20654831.871    84578084.66548
     -1060.397  
  20665756.179   108599281.29948     -2387.648    20665758.717    84622824.43347
     -1860.508  
  21676094.685   113908651.42249      2642.690    21676095.067    88759990.42247
      2059.238  
  22522569.706   118356905.08448      3598.016    22522571.534    92226169.11246
      2803.645  
  23158077.756   121696524.45846      2029.219    23158079.263    94828467.71444
      1581.214  
  23399747.095   122966500.25447     -2056.397    23399750.239    95818062.45946
     -1602.391  
  8  6  4  1 49 15.0000000  0  8G24G29G15G26G21G 9G18G10
  20371663.243   107053814.02149      -230.585    20371665.992    83418566.07347
      -179.680  
  23064313.510   121203770.39747     -2452.867    23064315.169    94444524.73744
     -1911.323  
  20658722.752   108562320.01749     -1366.063    20658724.257    84594023.05848
     -1064.468  
  20672579.729   108635139.45348     -2393.062    20672582.266    84650765.84947
     -1864.727  
  21668559.427   113869053.81148      2637.379    21668560.063    88729135.15346
      2055.097  
  22512304.906   118302963.91848      3594.762    22512307.066    92184137.05146
      2801.108  
  23152285.545   121666088.40446      2029.241    23152287.550    94804751.30344
      1581.219  
  23405619.006   122997357.94947     -2057.569    23405622.322    95842107.37845
     -1603.309  
  8  6  4  1 49 30.0000000  0  8G24G29G15G26G21G 9G18G10
  20372333.149   107057334.46149      -238.585    20372335.929    83421309.25747
      -185.913  
  23071319.899   121240590.21846     -2456.000    23071322.196    94473215.46645
     -1913.769  
  20662629.938   108582852.16749     -1371.426    20662631.434    84610022.13848
     -1068.647  
  20679418.665   108671078.08549     -2398.577    20679421.107    84678769.97847
     -1869.022  
  21661038.782   113829532.68148      2632.246    21661039.296    88698339.46047
      2051.097  
  22502049.107   118249068.67248      3591.480    22502050.917    92142140.77246
      2798.554  
  23146493.334   121635650.60147      2029.227    23146495.346    94781033.54244
      1581.210  
  23411494.630   123028232.62147     -2058.973    23411497.787    95866165.55045
     -1604.398  
  8  6  4  1 49 45.0000000  0  8G24G29G15G26G21G 9G18G10
  20373026.091   107060975.30549      -246.707    20373028.805    83424146.28147
      -192.242  
  23078335.921   121277459.29246     -2459.749    23078338.483    94501944.58145
     -1916.691  
  20666552.200   108603463.35349     -1376.741    20666553.513    84626082.79948
     -1072.789  
  20686273.093   108707098.28549     -2404.128    20686275.538    84706837.66447
     -1873.351  
  21653533.054   113790089.87648      2626.866    21653533.412    88667604.80846
      2046.906  
  22491802.424   118195221.14448      3588.417    22491804.070    92100181.67646
      2796.168  
  23140701.256   121605212.42847      2029.397    23140703.189    94757315.50244
      1581.347  
  23417373.760   123059125.68747     -2060.195    23417376.741    95890238.04145
     -1605.351  
  8  6  4  1 50  0.0000000  0  8G24G29G15G26G21G 9G18G10
  20373742.249   107064738.73849      -254.937    20373744.938    83427078.82248
      -198.656  
  23085361.680   121314379.18247     -2463.085    23085364.486    94530713.29444
     -1919.288  
  20670489.921   108624155.52949     -1382.199    20670491.202    84642206.57448
     -1077.043  
  20693143.270   108743201.77848     -2409.582    20693145.969    84734970.24347
     -1877.598  
  21646042.722   113750727.85148      2621.605    21646043.252    88636933.10746
      2042.805  
  22481564.983   118141423.96748      3584.784    22481566.772    92058261.81046
      2793.336  
  23134909.633   121574776.31047      2029.086    23134911.561    94733599.03545
      1581.102  
  23423256.893   123090039.29347     -2061.515    23423259.297    95914326.53045
     -1606.378  
  8  6  4  1 50 15.0000000  0  8G24G29G15G26G21G 9G18G10
  20374481.654   107068623.96349      -263.223    20374484.433    83430106.27448
      -205.113  
  23092396.717   121351348.74146     -2466.468    23092399.849    94559520.74345
     -1921.926  
  20674442.749   108644927.53049     -1387.601    20674443.974    84658392.54248
     -1081.250  
  20700029.247   108779387.42749     -2415.370    20700031.768    84763166.84447
     -1882.109  
  21638567.759   113711446.09248      2615.883    21638567.949    88606323.95746
      2038.347  
  22471337.234   118087676.75248      3581.195    22471339.048    92016380.86646
      2790.539  
  23129118.241   121544341.33647      2028.796    23129120.058    94709883.48345
      1580.878  
  23429143.613   123120972.56047     -2062.996    23429145.809    95938430.37446
     -1607.531  
  8  6  4  1 50 30.0000000  0  8G24G29G15G26G21G 9G18G10
  20375244.574   107072632.85449      -271.429    20375247.270    83433230.09048
      -211.507  
  23099441.797   121388369.35146     -2469.831    23099444.725    94588367.95744
     -1924.546  
  20678410.863   108665780.89449     -1392.983    20678412.076    84674641.91448
     -1085.445  
  20706930.920   108815656.65049     -2420.660    20706933.562    84791428.57047
     -1886.230  
  21631108.179   113672246.70848      2610.508    21631108.431    88575778.97846
      2034.160  
  22461119.400   118033981.48548      3577.922    22461121.528    91974540.42146
      2787.988  
  23123327.363   121513909.16446      2028.398    23123329.154    94686170.16945
      1580.570  
  23435034.142   123151927.28047     -2064.351    23435036.208    95962550.95046
     -1608.590  
  8  6  4  1 50 45.0000000  0  8G24G29G15G26G21G 9G18G10
  20376030.952   107076765.61449      -279.776    20376033.653    83436450.41548
      -218.011  
  23106496.311   121425440.70147     -2473.426    23106499.457    94617254.71744
     -1927.347  
  20682394.591   108686715.37149     -1398.586    20682395.738    84690954.50148
     -1089.809  
  20713848.655   108852009.12249     -2426.188    20713851.254    84819755.17547
     -1890.538  
  21623664.606   113633130.12248      2604.851    21623664.880    88545298.50646
      2029.749  
  22450911.421   117980338.85048      3574.253    22450913.756    91932740.98946
      2785.128  
  23117536.959   121483479.75847      2028.301    23117538.192    94662458.90043
      1580.491  
